[
  {
    "name": "山上人家森林農場",
    "address": "五峰鄉23鄰468之5號",
    "location": {
      "lat": 24.6046404,
      "lng": 121.0891015
    }
  },
  {
    "name": "PAUL保羅麵包烘培餐廳 新竹巨城店",
    "address": "1F, No. 229號, 中央路, 東區",
    "location": {
      "lat": 24.8100491,
      "lng": 120.9742328
    }
  },
  {
    "name": "喜木咖啡",
    "address": "竹北市鳳岡路二段422號",
    "location": {
      "lat": 24.8610878,
      "lng": 120.9737366
    }
  },
  {
    "name": "山行玫瑰",
    "address": "南庄鄉25-1號",
    "location": {
      "lat": 24.6141461,
      "lng": 121.039728
    }
  },
  {
    "name": "鍋子咖啡",
    "address": "北區民富街194號",
    "location": {
      "lat": 24.8063848,
      "lng": 120.9586247
    }
  },
  {
    "name": "巴巴坑道休閒礦場",
    "address": "三灣鄉15-1號",
    "location": {
      "lat": 24.6459972,
      "lng": 120.9995
    }
  },
  {
    "name": "八方園百年三合院景觀客家餐廳",
    "address": "楊梅區校前路580號",
    "location": {
      "lat": 24.894416,
      "lng": 121.1467328
    }
  },
  {
    "name": "墨咖啡 INK COFFEE",
    "address": "東區林森路180號",
    "location": {
      "lat": 24.799274,
      "lng": 120.9643338
    }
  },
  {
    "name": "櫻木花道內灣咖啡",
    "address": "橫山鄉南坪路1號",
    "location": {
      "lat": 24.701124,
      "lng": 121.1818637
    }
  },
  {
    "name": "佈拉諾咖啡館",
    "address": "東區三民路40號",
    "location": {
      "lat": 24.8076555,
      "lng": 120.974086
    }
  },
  {
    "name": "郭元益糕餅博物館 桃園楊梅館",
    "address": "楊梅區青年路9巷3號",
    "location": {
      "lat": 24.9282193,
      "lng": 121.166915
    }
  },
  {
    "name": "星巴克 竹北光明門市",
    "address": "竹北市光明六路東一段316號",
    "location": {
      "lat": 24.8197423,
      "lng": 121.0276429
    }
  },
  {
    "name": "享夜景觀咖啡EnjoyNight",
    "address": "678巷16號, 杨铜路二段, 龙潭区",
    "location": {
      "lat": 24.8673274,
      "lng": 121.184622
    }
  },
  {
    "name": "黑白嗆 個人創意義大利美食",
    "address": "東區長春街41號",
    "location": {
      "lat": 24.7857654,
      "lng": 121.0143456
    }
  },
  {
    "name": "李宅Not Only Café",
    "address": "東區金山九街29號",
    "location": {
      "lat": 24.7779995,
      "lng": 121.0210669
    }
  },
  {
    "name": "沙湖壢咖啡館",
    "address": "寶山鄉山湖路63號",
    "location": {
      "lat": 24.7499841,
      "lng": 121.04472
    }
  },
  {
    "name": "摘星茶廊 The Mezzanine",
    "address": "東區中華路二段188號13樓",
    "location": {
      "lat": 24.80640189999999,
      "lng": 120.978266
    }
  },
  {
    "name": "碧絡角 Biluojiao(最後入園&點餐時間:16:30)",
    "address": "南庄鄉東河村 橫屏背12鄰25號",
    "location": {
      "lat": 24.6162785,
      "lng": 121.0387046
    }
  },
  {
    "name": "85度C 竹北博愛店",
    "address": "竹北市中正東路219號",
    "location": {
      "lat": 24.8350342,
      "lng": 121.014546
    }
  },
  {
    "name": "天水茶房",
    "address": "北埔鄉北埔街35號",
    "location": {
      "lat": 24.6996933,
      "lng": 121.0570138
    }
  },
  {
    "name": "85度C 竹東中豐店",
    "address": "竹東鎮中豐路二段21號",
    "location": {
      "lat": 24.72189580000001,
      "lng": 121.0958308
    }
  },
  {
    "name": "漫境 Man Juan",
    "address": "龍潭區大北坑街1998巷139號",
    "location": {
      "lat": 24.8694034,
      "lng": 121.1643774
    }
  },
  {
    "name": "大山背人文生態館",
    "address": "橫山鄉大山背80號",
    "location": {
      "lat": 24.685477,
      "lng": 121.138934
    }
  },
  {
    "name": "羅塔仕咖啡",
    "address": "東區西大路72巷97號",
    "location": {
      "lat": 24.79790869999999,
      "lng": 120.9707477
    }
  },
  {
    "name": "儷舍咖啡",
    "address": "北區民富街188號",
    "location": {
      "lat": 24.806535,
      "lng": 120.9588687
    }
  },
  {
    "name": "春水堂 竹北店",
    "address": "竹北市文信路329號",
    "location": {
      "lat": 24.8321071,
      "lng": 121.0113244
    }
  },
  {
    "name": "舊是經典（公休：7/6、7/19、7/20）",
    "address": "東區建美路5號",
    "location": {
      "lat": 24.8011763,
      "lng": 120.9973904
    }
  },
  {
    "name": "瓦祿產業文化館",
    "address": "南庄鄉東河村5鄰78號",
    "location": {
      "lat": 24.5988645,
      "lng": 121.0410932
    }
  },
  {
    "name": "大灣坪",
    "address": "大溪區環湖路一段300號",
    "location": {
      "lat": 24.8092571,
      "lng": 121.2613669
    }
  },
  {
    "name": "怡明茶園(敬請預約)",
    "address": "老崎, 12鄰 22-5號, 头份镇",
    "location": {
      "lat": 24.6890273,
      "lng": 120.9520048
    }
  },
  {
    "name": "雅舍咖啡",
    "address": "竹北市嘉豐五路一段17號",
    "location": {
      "lat": 24.8149996,
      "lng": 121.0312768
    }
  },
  {
    "name": "STARBUCKS 星巴克 (新竹達門市)",
    "address": "東區力行二路1號",
    "location": {
      "lat": 24.7739175,
      "lng": 121.0194903
    }
  },
  {
    "name": "11樓之2的小花園",
    "address": "1樓, No. 12號, 北大路92巷31弄, 北区",
    "location": {
      "lat": 24.8125117,
      "lng": 120.9692064
    }
  },
  {
    "name": "CoCo都可 湖口仁和店",
    "address": "湖口鄉仁和路133號",
    "location": {
      "lat": 24.8729691,
      "lng": 121.0148487
    }
  },
  {
    "name": "松田村咖啡莊",
    "address": "峨眉鄉湖光村12寮12鄰1號",
    "location": {
      "lat": 24.6691476,
      "lng": 120.9917538
    }
  },
  {
    "name": "Script Coffee",
    "address": "1樓, No. 101號, 建中路, 东区",
    "location": {
      "lat": 24.8029777,
      "lng": 120.9956964
    }
  },
  {
    "name": "達利自家烘焙咖啡館",
    "address": "竹北市建國街37號",
    "location": {
      "lat": 24.8324282,
      "lng": 121.0123538
    }
  },
  {
    "name": "廣福客棧",
    "address": "北埔鄉秀巒街37號巷10號",
    "location": {
      "lat": 24.7008152,
      "lng": 121.0587037
    }
  },
  {
    "name": "歐客佬精品咖啡（城隍店）",
    "address": "東區東門街214號",
    "location": {
      "lat": 24.80459,
      "lng": 120.9663636
    }
  },
  {
    "name": "Hollatte馥拿鐵 自烘咖啡 金山總店/新竹自家烘焙/新竹咖啡廳/新竹甜點/新竹美食/新竹下午茶/新竹單品咖啡",
    "address": "東區金山七街70號",
    "location": {
      "lat": 24.777328,
      "lng": 121.019885
    }
  },
  {
    "name": "峨眉湖咖啡館",
    "address": "峨眉鄉太平街8巷2弄1號",
    "location": {
      "lat": 24.6856132,
      "lng": 120.9887979
    }
  },
  {
    "name": "SPOT Taiwan",
    "address": "竹南鎮竹圍仔91號",
    "location": {
      "lat": 24.6944179,
      "lng": 120.8545583
    }
  },
  {
    "name": "內灣.旅人蕉休閒庭園",
    "address": "橫山鄉內灣村15鄰45號",
    "location": {
      "lat": 24.701568,
      "lng": 121.181631
    }
  },
  {
    "name": "85度C咖啡蛋糕飲料(楊梅新成店）",
    "address": "楊梅區新成路165號",
    "location": {
      "lat": 24.90924219999999,
      "lng": 121.1468994
    }
  },
  {
    "name": "香草花園",
    "address": "湖口鄉湖口老街193號",
    "location": {
      "lat": 24.8772222,
      "lng": 121.0572222
    }
  },
  {
    "name": "春尚咖啡簡餐店",
    "address": "湖口鄉大智路42-1號",
    "location": {
      "lat": 24.8735914,
      "lng": 121.0125615
    }
  },
  {
    "name": "春境庭園咖啡",
    "address": "香山區柯湳一街81號",
    "location": {
      "lat": 24.7530549,
      "lng": 120.9520386
    }
  },
  {
    "name": "直達咖啡-新竹咖啡 新竹咖啡豆 新竹精品咖啡 新竹手沖咖啡 新竹淺烘培 新竹衣索匹亞咖啡 咖啡訂閱制 北歐咖啡",
    "address": "東區光復路一段544巷9弄14號",
    "location": {
      "lat": 24.787751,
      "lng": 121.010563
    }
  },
  {
    "name": "CoCo都可 明湖店",
    "address": "東區南大路579號",
    "location": {
      "lat": 24.7888513,
      "lng": 120.9667551
    }
  },
  {
    "name": "旅人咖啡館.龍潭店",
    "address": "龍潭區中正路310號",
    "location": {
      "lat": 24.8614165,
      "lng": 121.2174951
    }
  },
  {
    "name": "觀天下（嶺空）咖啡庭園景觀餐廳",
    "address": "1樓, No. 712號, 杨铜路二段, 龙潭区",
    "location": {
      "lat": 24.8680043,
      "lng": 121.1839465
    }
  },
  {
    "name": "星巴克 台元門市",
    "address": "竹北市台元街34號",
    "location": {
      "lat": 24.8426814,
      "lng": 121.0162353
    }
  },
  {
    "name": "峨眉湖畔人家/新竹景觀餐廳/新竹咖啡廳/新竹景點/十二寮美食/十二寮咖啡廳/峨嵋咖啡廳",
    "address": "峨眉鄉21-8號",
    "location": {
      "lat": 24.6758365,
      "lng": 120.9854812
    }
  },
  {
    "name": "怡客咖啡 新竹光復店",
    "address": "東區光復路二段738號",
    "location": {
      "lat": 24.8007013,
      "lng": 120.9890325
    }
  },
  {
    "name": "清心福全 竹南民治店珍珠奶茶手搖飲料專門店",
    "address": "竹南鎮民治街42號",
    "location": {
      "lat": 24.6850205,
      "lng": 120.8780923
    }
  },
  {
    "name": "OKLAO歐客佬咖啡農場",
    "address": "竹北市光明一路367號",
    "location": {
      "lat": 24.8329812,
      "lng": 121.0071426
    }
  },
  {
    "name": "星巴克 西大門市",
    "address": "東區西大路323號",
    "location": {
      "lat": 24.8019347,
      "lng": 120.9648374
    }
  },
  {
    "name": "星巴克 六家門市",
    "address": "竹北市高鐵七路6號",
    "location": {
      "lat": 24.8080601,
      "lng": 121.0404152
    }
  },
  {
    "name": "e咖啡",
    "address": "北區湳雅街2之3號",
    "location": {
      "lat": 24.816913,
      "lng": 120.9696399
    }
  },
  {
    "name": "SummerCafé",
    "address": "No. 86號, 湖新路701巷, 湖口乡",
    "location": {
      "lat": 24.874129,
      "lng": 121.069883
    }
  },
  {
    "name": "谷點咖啡民宿Goodian Coffee,Bed & Breakfast",
    "address": "復興區華陵里巴崚8鄰30號",
    "location": {
      "lat": 24.676609,
      "lng": 121.399532
    }
  },
  {
    "name": "阿珠客家擂茶",
    "address": "橫山鄉中正路78號",
    "location": {
      "lat": 24.7069059,
      "lng": 121.1807651
    }
  },
  {
    "name": "儷舍坊",
    "address": "東區科學園路34號",
    "location": {
      "lat": 24.7860039,
      "lng": 121.0099968
    }
  },
  {
    "name": "石坪茶屋",
    "address": "No. 239號, 二坪路, 龙潭区",
    "location": {
      "lat": 24.8202408,
      "lng": 121.2426234
    }
  },
  {
    "name": "GB5用心的咖啡",
    "address": "東區興學街96號",
    "location": {
      "lat": 24.7975082,
      "lng": 120.9661048
    }
  },
  {
    "name": "河堤上的貓",
    "address": "東區公園路274號1 樓",
    "location": {
      "lat": 24.8031089,
      "lng": 120.9795191
    }
  },
  {
    "name": "福星咖啡",
    "address": "東區武昌街11號",
    "location": {
      "lat": 24.8009155,
      "lng": 120.9683245
    }
  },
  {
    "name": "星之戀咖啡美食館",
    "address": "龍潭區楊銅路二段712-1號",
    "location": {
      "lat": 24.86812889999999,
      "lng": 121.1840628
    }
  },
  {
    "name": "鋒人文咖啡館",
    "address": "竹南鎮環市路三段1-1號",
    "location": {
      "lat": 24.6881065,
      "lng": 120.8696757
    }
  },
  {
    "name": "貝絲咖啡農場",
    "address": "五峰鄉竹林村5鄰和平166-12號",
    "location": {
      "lat": 24.624392,
      "lng": 121.112097
    }
  },
  {
    "name": "新竹五峰撒牧咖啡",
    "address": "五峰鄉隘蘭聯絡道路",
    "location": {
      "lat": 24.6091014,
      "lng": 121.1003188
    }
  },
  {
    "name": "內灣野人山丘咖啡館",
    "address": "橫山鄉15 鄰38-2 號",
    "location": {
      "lat": 24.7012973,
      "lng": 121.1819575
    }
  },
  {
    "name": "遷徙咖啡民宿｜咖啡廳、餐廳、蛋糕下午茶 對外開放｜訂房請至fb私訊",
    "address": "橫山鄉和平街18號",
    "location": {
      "lat": 24.7068988,
      "lng": 121.1802207
    }
  },
  {
    "name": "大山北月",
    "address": "橫山鄉大山背80號",
    "location": {
      "lat": 24.685446,
      "lng": 121.138983
    }
  },
  {
    "name": "Losir復古車咖啡莊園",
    "address": "北埔鄉8鄰10-3號1F",
    "location": {
      "lat": 24.7067776,
      "lng": 121.0558352
    }
  },
  {
    "name": "塔那咖啡.簡餐.下午茶",
    "address": "復興區羅馬公路六段760號",
    "location": {
      "lat": 24.78021829999999,
      "lng": 121.2658953
    }
  },
  {
    "name": "巴尚咖啡（ 窯烤.下午茶.麵包.披薩）",
    "address": "No. 400號, 羅馬路六段, 復興區",
    "location": {
      "lat": 24.7839219,
      "lng": 121.2757874
    }
  },
  {
    "name": "清心福全竹東中豐店-珍珠奶茶手搖飲料專賣店",
    "address": "竹東鎮中豐路二段17號˙1樓",
    "location": {
      "lat": 24.7218957,
      "lng": 121.095863
    }
  },
  {
    "name": "司馬庫斯部落咖啡館",
    "address": "新竹縣尖石鄉",
    "location": {
      "lat": 24.5784907,
      "lng": 121.3344812
    }
  },
  {
    "name": "天空咖啡",
    "address": "復興區羅馬路六段230號",
    "location": {
      "lat": 24.7907037,
      "lng": 121.277866
    }
  },
  {
    "name": "茉莉咖啡館",
    "address": "竹東鎮長春路一段59號1樓",
    "location": {
      "lat": 24.7307755,
      "lng": 121.0915698
    }
  },
  {
    "name": "擂茶三生店",
    "address": "北埔鄉公園街22號鄧南光影像紀念館 對面",
    "location": {
      "lat": 24.6987684,
      "lng": 121.0574613
    }
  },
  {
    "name": "璞鈺擂茶 PUYU HAKKA LEICHA",
    "address": "北埔鄉廟前街8號",
    "location": {
      "lat": 24.6990496,
      "lng": 121.0575657
    }
  },
  {
    "name": "竹東莫內咖啡",
    "address": "竹東鎮中豐路三段557號",
    "location": {
      "lat": 24.7189693,
      "lng": 121.0746002
    }
  },
  {
    "name": "COCO都可茶飲",
    "address": "關西鎮中山路70號",
    "location": {
      "lat": 24.7914453,
      "lng": 121.1763101
    }
  },
  {
    "name": "拾樂坊",
    "address": "北埔鄉中正路76號",
    "location": {
      "lat": 24.7007752,
      "lng": 121.0545876
    }
  },
  {
    "name": "CoCo都可(竹東店)",
    "address": "竹東鎮長春路二段17號",
    "location": {
      "lat": 24.7373197,
      "lng": 121.0887018
    }
  },
  {
    "name": "DT - Dream Theatre 52",
    "address": "關西鎮中正路52號",
    "location": {
      "lat": 24.7887013,
      "lng": 121.176484
    }
  },
  {
    "name": "汪汪來我家實驗生活2號店",
    "address": "關西鎮中正路62號",
    "location": {
      "lat": 24.78907899999999,
      "lng": 121.176456
    }
  },
  {
    "name": "依山閣景觀咖啡",
    "address": "龍潭區二坪34號",
    "location": {
      "lat": 24.8108068,
      "lng": 121.239902
    }
  },
  {
    "name": "50嵐 竹東長春店",
    "address": "長春路三段226號",
    "location": {
      "lat": 24.744695,
      "lng": 121.082793
    }
  },
  {
    "name": "西雅圖極品咖啡 關西服務區",
    "address": "關西鎮上三屯14號",
    "location": {
      "lat": 24.801103,
      "lng": 121.192443
    }
  },
  {
    "name": "雲霄咖啡 SKY COFFEE",
    "address": "大溪區環湖路2號",
    "location": {
      "lat": 24.8123851,
      "lng": 121.2476936
    }
  },
  {
    "name": "愛上咖啡",
    "address": "北埔鄉公園街29號",
    "location": {
      "lat": 24.6985516,
      "lng": 121.05747
    }
  },
  {
    "name": "民歌擂茶",
    "address": "北埔鄉北埔街41號",
    "location": {
      "lat": 24.6997036,
      "lng": 121.056822
    }
  },
  {
    "name": "得桬灣Tsawan",
    "address": "尖石鄉秀巒村9鄰14-3號",
    "location": {
      "lat": 24.5737784,
      "lng": 121.3084709
    }
  },
  {
    "name": "哥寂寞qzimux 手沖咖啡（季節性據點）coffee 咖啡豆線上訂購 店到店貨到付款",
    "address": "No. 11-1號, 泰崗6鄰, 尖石鄉",
    "location": {
      "lat": 24.6155838,
      "lng": 121.2945977
    }
  },
  {
    "name": "喜嵐咖啡",
    "address": "尖石鄉秀巒道路",
    "location": {
      "lat": 24.6201053,
      "lng": 121.2866079
    }
  },
  {
    "name": "樹舍迎風13.7k樹屋咖啡",
    "address": "尖石鄉28-2號",
    "location": {
      "lat": 24.6706244,
      "lng": 121.2743175
    }
  },
  {
    "name": "Z cafe",
    "address": "尖石鄉錦屏村8鄰那羅42-1號",
    "location": {
      "lat": 24.679912,
      "lng": 121.242889
    }
  },
  {
    "name": "請問Coffee",
    "address": "五峰鄉3鄰68之2號",
    "location": {
      "lat": 24.6247299,
      "lng": 121.1478065
    }
  },
  {
    "name": "柿山戀情",
    "address": "尖石鄉那羅至煤源聯絡道",
    "location": {
      "lat": 24.6905857,
      "lng": 121.2545643
    }
  },
  {
    "name": "沛瑅絲",
    "address": "尖石鄉6鄰36-2號",
    "location": {
      "lat": 24.68264599999999,
      "lng": 121.217701
    }
  },
  {
    "name": "拉拉山製茶廠 (三光)",
    "address": "復興區武道能敢復興 區 三光 里 6 鄰 14-13 號",
    "location": {
      "lat": 24.6805145,
      "lng": 121.361298
    }
  },
  {
    "name": "久山虎蜜咖啡驛站",
    "address": "巴崚, 93號, 复兴区",
    "location": {
      "lat": 24.6480068,
      "lng": 121.4113308
    }
  },
  {
    "name": "Balong cafe",
    "address": "復興區巴陵",
    "location": {
      "lat": 24.678931,
      "lng": 121.383178
    }
  },
  {
    "name": "以薩迦咖啡簡餐",
    "address": "復興區巴崚21號",
    "location": {
      "lat": 24.6784248,
      "lng": 121.3852479
    }
  }
]