[
  {
    "name": "阿妹茶樓",
    "address": "瑞芳區市下巷20號",
    "location": {
      "lat": 25.1085634,
      "lng": 121.8436065
    }
  },
  {
    "name": "貓小路cafe",
    "address": "仁愛區孝二路83號3樓",
    "location": {
      "lat": 25.1302786,
      "lng": 121.7403738
    }
  },
  {
    "name": "虎仔山休閒咖啡館",
    "address": "中山區中山二路65巷105號",
    "location": {
      "lat": 25.1389346,
      "lng": 121.7387952
    }
  },
  {
    "name": "Marucomer Cafe",
    "address": "仁愛區孝二路28號",
    "location": {
      "lat": 25.1285991,
      "lng": 121.739518
    }
  },
  {
    "name": "白屋",
    "address": "瑞芳區建基路二段119號",
    "location": {
      "lat": 25.134496,
      "lng": 121.80447
    }
  },
  {
    "name": "Eddie's Cafe Et Tiramisu",
    "address": "一樓, No. 25號, 華四街, 仁愛區",
    "location": {
      "lat": 25.12609489999999,
      "lng": 121.7360835
    }
  },
  {
    "name": "BOSS咖啡廚房",
    "address": "瑞芳區建基路二段117號",
    "location": {
      "lat": 25.134027,
      "lng": 121.8052968
    }
  },
  {
    "name": "亞諾咖啡",
    "address": "仁愛區孝一路62號2樓",
    "location": {
      "lat": 25.1302905,
      "lng": 121.7414314
    }
  },
  {
    "name": "希臘天空海景景觀餐廳",
    "address": "中正區北寧路369巷50號",
    "location": {
      "lat": 25.143388,
      "lng": 121.802888
    }
  },
  {
    "name": "茉莉森咖啡館",
    "address": "仁愛區孝二路98號2003樓",
    "location": {
      "lat": 25.1302764,
      "lng": 121.7408271
    }
  },
  {
    "name": "吾穀茶糧_九份食茶館",
    "address": "瑞芳區基山街166號",
    "location": {
      "lat": 25.1079807,
      "lng": 121.8432235
    }
  },
  {
    "name": "不老田咖啡坊",
    "address": "信義區信一路96巷7號",
    "location": {
      "lat": 25.1290976,
      "lng": 121.7504352
    }
  },
  {
    "name": "水心月茶坊",
    "address": "瑞芳區輕便路308號",
    "location": {
      "lat": 25.1086616,
      "lng": 121.8429576
    }
  },
  {
    "name": "Café Passeport 咖啡護照",
    "address": "仁愛區忠一路6號",
    "location": {
      "lat": 25.1307991,
      "lng": 121.7407763
    }
  },
  {
    "name": "星巴克 (義14門市)",
    "address": "中正區義一路14號",
    "location": {
      "lat": 25.1311883,
      "lng": 121.7446136
    }
  },
  {
    "name": "洞咖啡",
    "address": "中山區仁安街9號",
    "location": {
      "lat": 25.1452408,
      "lng": 121.7479782
    }
  },
  {
    "name": "阿信咖啡館",
    "address": "仁愛區愛五路3號",
    "location": {
      "lat": 25.1279826,
      "lng": 121.745153
    }
  },
  {
    "name": "芋仔蕃薯",
    "address": "瑞芳區市下巷18號",
    "location": {
      "lat": 25.1087004,
      "lng": 121.8438147
    }
  },
  {
    "name": "85度C咖啡蛋糕飲料(基隆東信店)",
    "address": "信義區東信路316號",
    "location": {
      "lat": 25.128695,
      "lng": 121.760364
    }
  },
  {
    "name": "85度C 基隆樂一店",
    "address": "安樂區樂一路2-1號",
    "location": {
      "lat": 25.1317747,
      "lng": 121.7346428
    }
  },
  {
    "name": "92度極品咖啡",
    "address": "中正區北寧路71號",
    "location": {
      "lat": 25.1482181,
      "lng": 121.7833292
    }
  },
  {
    "name": "清心福全明燈店-珍珠奶茶手搖飲料專賣店",
    "address": "瑞芳區明燈路三段45號",
    "location": {
      "lat": 25.1078912,
      "lng": 121.8066917
    }
  },
  {
    "name": "轉角遇見好咖啡",
    "address": "仁愛區孝一路113號",
    "location": {
      "lat": 25.1279809,
      "lng": 121.740152
    }
  },
  {
    "name": "老窩咖啡館 忠三店",
    "address": "仁愛區忠三路49號",
    "location": {
      "lat": 25.1290478,
      "lng": 121.7394953
    }
  },
  {
    "name": "H&K Original Coffee",
    "address": "仁愛區仁五路29號",
    "location": {
      "lat": 25.127156,
      "lng": 121.741039
    }
  },
  {
    "name": "CoCo都可 基隆廟口店",
    "address": "仁愛區愛三路28號",
    "location": {
      "lat": 25.1276211,
      "lng": 121.7422186
    }
  },
  {
    "name": "廖媽媽珍珠奶茶專賣鋪",
    "address": "仁愛區孝三路84號2樓",
    "location": {
      "lat": 25.1309443,
      "lng": 121.7399409
    }
  },
  {
    "name": "好饗咖啡",
    "address": "中正區中正路1號1樓",
    "location": {
      "lat": 25.1318202,
      "lng": 121.7433601
    }
  },
  {
    "name": "貓町珈琲 Cattown : Coffee Stand",
    "address": "中正區義二2巷4號",
    "location": {
      "lat": 25.1305113,
      "lng": 121.7454535
    }
  },
  {
    "name": "沁茶悅健康飲品",
    "address": "中正區義二路42號",
    "location": {
      "lat": 25.1312957,
      "lng": 121.7455939
    }
  },
  {
    "name": "LOKA CAFE",
    "address": "中正區中正路28號",
    "location": {
      "lat": 25.1330512,
      "lng": 121.744766
    }
  },
  {
    "name": "基隆 卡瑪咖啡吧 Comme Coffee & Bar / 酒吧 / 調酒 / 啤酒 / 咖啡 / 甜點 / 下午茶 / 外帶咖啡",
    "address": "1樓, No. 284號, 信二路, 中正区",
    "location": {
      "lat": 25.13119529999999,
      "lng": 121.7461023
    }
  },
  {
    "name": "8克咖啡",
    "address": "仁愛區仁二路52號1樓",
    "location": {
      "lat": 25.12778549999999,
      "lng": 121.7496005
    }
  },
  {
    "name": "Rambling Duke Coffee 小公爵漫步咖啡",
    "address": "仁愛區水錦里仁二路8號",
    "location": {
      "lat": 25.12773589999999,
      "lng": 121.7506507
    }
  },
  {
    "name": "Hana Cafe 花珈琲雜貨舖",
    "address": "仁愛區劉銘傳路16號1樓",
    "location": {
      "lat": 25.1273557,
      "lng": 121.7507473
    }
  },
  {
    "name": "大船入港休閒咖啡館",
    "address": "中山區中山二路51巷132號",
    "location": {
      "lat": 25.1384757,
      "lng": 121.7390741
    }
  },
  {
    "name": "夏隆咖啡 Shalom Cafe",
    "address": "信義區義六路38號",
    "location": {
      "lat": 25.1316555,
      "lng": 121.7515734
    }
  },
  {
    "name": "朝棟茶坊",
    "address": "中山區中山二路105巷103號",
    "location": {
      "lat": 25.1394979,
      "lng": 121.7380842
    }
  },
  {
    "name": "平安咖啡Peace Coffee",
    "address": "中正區中船路68號",
    "location": {
      "lat": 25.1373417,
      "lng": 121.7509464
    }
  },
  {
    "name": "Ruth C. Coffee 茹絲咖啡",
    "address": "中正區中正路559-2號",
    "location": {
      "lat": 25.1523492,
      "lng": 121.7691605
    }
  },
  {
    "name": "找到幸福咖啡店eureka cafe",
    "address": "中正區中正路559號",
    "location": {
      "lat": 25.1523822,
      "lng": 121.76914
    }
  },
  {
    "name": "熊豆咖啡",
    "address": "中正區中正路579-1號",
    "location": {
      "lat": 25.1521135,
      "lng": 121.7698712
    }
  },
  {
    "name": "一粒珈琲",
    "address": "信義區深美街152號",
    "location": {
      "lat": 25.1361785,
      "lng": 121.7797099
    }
  },
  {
    "name": "咖啡種子園",
    "address": "中正區中正路812號之6號",
    "location": {
      "lat": 25.1509778,
      "lng": 121.7718575
    }
  },
  {
    "name": "薈萃坊 Elitecafe",
    "address": "中正區北寧路2號 人文社會科學院2樓",
    "location": {
      "lat": 25.1497075,
      "lng": 121.775124
    }
  },
  {
    "name": "海角風情咖啡館",
    "address": "瑞芳區建基路二段3號",
    "location": {
      "lat": 25.1324186,
      "lng": 121.8110588
    }
  },
  {
    "name": "瑞芳老窩咖啡",
    "address": "瑞芳區明燈路三段90號",
    "location": {
      "lat": 25.1083506,
      "lng": 121.8055232
    }
  },
  {
    "name": "Louisa Coffee 路易莎咖啡(瑞金店)",
    "address": "瑞芳區明燈路三段65號",
    "location": {
      "lat": 25.1082256,
      "lng": 121.8056043
    }
  },
  {
    "name": "賞星月沐庭園民宿",
    "address": "No. 20-1, No. 20-1, 豎崎路, 瑞芳區",
    "location": {
      "lat": 25.1095819,
      "lng": 121.8432083
    }
  },
  {
    "name": "印象九份-手作絹印",
    "address": "瑞芳區豎崎路9號",
    "location": {
      "lat": 25.1079636,
      "lng": 121.8436255
    }
  },
  {
    "name": "高麗照茗茶",
    "address": "瑞芳區基山街19號No",
    "location": {
      "lat": 25.1093853,
      "lng": 121.8454224
    }
  },
  {
    "name": "漫嚐咖啡",
    "address": "瑞芳區柴寮路225號",
    "location": {
      "lat": 25.0865903,
      "lng": 121.82597
    }
  },
  {
    "name": "小樹夏咖啡",
    "address": "瑞芳區五號路135號",
    "location": {
      "lat": 25.1118967,
      "lng": 121.8540756
    }
  },
  {
    "name": "悠119客廳·咖啡·會館",
    "address": "瑞芳區五號路119號",
    "location": {
      "lat": 25.1123059,
      "lng": 121.8545648
    }
  }
]