[
  {
    "name": "市場裡的拾壹號咖啡 No.11 Coffee 西門店",
    "address": "中央路3巷16號",
    "location": {
      "lat": 24.8040611,
      "lng": 120.9663956
    }
  },
  {
    "name": "市場裡的拾壹號咖啡 No.11 Coffee 竹蓮店 取貨區",
    "address": "竹蓮街15號11號攤位(竹蓮市場1樓",
    "location": {
      "lat": 24.7967038,
      "lng": 120.9719844
    }
  },
  {
    "name": "癒咖啡Heal coffee",
    "address": "惠昌街49號",
    "location": {
      "lat": 24.7391559,
      "lng": 121.0880828
    }
  },
  {
    "name": "Laid Back Cafe &Bar 【埔頂門市】",
    "address": "埔頂路3號",
    "location": {
      "lat": 24.7928848,
      "lng": 121.007325
    }
  },
  {
    "name": "自然產販豆所 coffee & roaster (無訂位／營業時間依IG為主)",
    "address": "長安街79號",
    "location": {
      "lat": 24.8066561,
      "lng": 120.965282
    }
  },
  {
    "name": "拾穗精品咖啡",
    "address": "長春街105巷1號",
    "location": {
      "lat": 24.7872828,
      "lng": 121.0154535
    }
  },
  {
    "name": "WIRED CAFE 竹北樹海店",
    "address": "勝利十五街188號",
    "location": {
      "lat": 24.828236,
      "lng": 121.0302601
    }
  },
  {
    "name": "直達咖啡-新竹咖啡 新竹咖啡豆 新竹精品咖啡 新竹手沖咖啡 新竹淺烘培 新竹衣索匹亞咖啡 咖啡訂閱制 北歐咖啡",
    "address": "文化街22號1樓",
    "location": {
      "lat": 24.7764001,
      "lng": 121.0775615
    }
  },
  {
    "name": "米啡思咖啡",
    "address": "雙園路一段2巷38號",
    "location": {
      "lat": 24.7707445,
      "lng": 121.0039766
    }
  },
  {
    "name": "好喝咖啡豆推薦 努哇克 新竹總店 評鑒導師烘焙",
    "address": "磐石路10號",
    "location": {
      "lat": 24.8083716,
      "lng": 120.9576979
    }
  },
  {
    "name": "charis coffee",
    "address": "關東路197號-3號",
    "location": {
      "lat": 24.7901424,
      "lng": 121.0192115
    }
  },
  {
    "name": "若木深夜咖啡廳",
    "address": "縣政二路70號",
    "location": {
      "lat": 24.823507,
      "lng": 121.0146075
    }
  },
  {
    "name": "好喝咖啡豆推薦 努哇克 竹東朝陽(評鑑導師烘焙)",
    "address": "朝陽路88號",
    "location": {
      "lat": 24.7428029,
      "lng": 121.0868507
    }
  },
  {
    "name": "Princeken Coffee 普林斯肯咖啡館 竹北",
    "address": "高鐵八路188號",
    "location": {
      "lat": 24.8068116,
      "lng": 121.0422493
    }
  },
  {
    "name": "赫曼咖啡",
    "address": "千甲路5號",
    "location": {
      "lat": 24.8066332,
      "lng": 120.9970419
    }
  },
  {
    "name": "陳宅CAFE",
    "address": "西大路72巷71號",
    "location": {
      "lat": 24.7973753,
      "lng": 120.9709031
    }
  },
  {
    "name": "Hollatte馥拿鐵 自烘咖啡 金山總店/新竹自家烘焙/新竹咖啡廳/新竹甜點/新竹美食/新竹下午茶/新竹單品咖啡",
    "address": "金山七街70號",
    "location": {
      "lat": 24.777328,
      "lng": 121.019885
    }
  },
  {
    "name": "凸鼻子現烘咖啡坊",
    "address": "中華路二段211號",
    "location": {
      "lat": 24.8055613,
      "lng": 120.9778323
    }
  },
  {
    "name": "那家咖啡館（單品冰滴販売）",
    "address": "西大路465號",
    "location": {
      "lat": 24.8047629,
      "lng": 120.9632794
    }
  },
  {
    "name": "Habitat Café 棲息地自烘精品咖啡",
    "address": "中興路二段49號",
    "location": {
      "lat": 24.7583126,
      "lng": 121.0662873
    }
  },
  {
    "name": "Jiumu Coffee Roasters & Cocktail Bar 九慕咖啡調酒吧",
    "address": "中正路60號",
    "location": {
      "lat": 24.8049455,
      "lng": 120.9701265
    }
  },
  {
    "name": "Laid Back Cafe 來杯咖啡【關新門市】",
    "address": "關新東路321號",
    "location": {
      "lat": 24.7868597,
      "lng": 121.020558
    }
  },
  {
    "name": "5.15 Cafe 咖啡．甜點",
    "address": "成功二街96號2F",
    "location": {
      "lat": 24.8195225,
      "lng": 121.024355
    }
  },
  {
    "name": "有田咖啡 Youtian Cafe",
    "address": "東興路二段2巷82號",
    "location": {
      "lat": 24.8029953,
      "lng": 121.0486048
    }
  },
  {
    "name": "咖啡先生",
    "address": "華興街53號",
    "location": {
      "lat": 24.8418646,
      "lng": 121.0042399
    }
  },
  {
    "name": "ROUTE COFFEE STAND",
    "address": "博愛街304號",
    "location": {
      "lat": 24.834878,
      "lng": 121.0077759
    }
  },
  {
    "name": "橋恩咖啡",
    "address": "文信路297號",
    "location": {
      "lat": 24.8318101,
      "lng": 121.0126401
    }
  },
  {
    "name": "cafe'8",
    "address": "林森路304號",
    "location": {
      "lat": 24.7974352,
      "lng": 120.9614895
    }
  },
  {
    "name": "橘時咖啡新竹關新店",
    "address": "關新路45號",
    "location": {
      "lat": 24.7854171,
      "lng": 121.0184011
    }
  },
  {
    "name": "Shmily Cafe 興利咖啡｜手沖咖啡｜現烘咖啡豆｜淺焙專門｜自製甜點",
    "address": "六家五路一段147號",
    "location": {
      "lat": 24.8091544,
      "lng": 121.0262004
    }
  },
  {
    "name": "Ramble Cafe漫步藍咖啡-新竹雙園店",
    "address": "雙園路一段2巷6號",
    "location": {
      "lat": 24.7707426,
      "lng": 121.0053983
    }
  },
  {
    "name": "歐客佬精品咖啡（城隍店）",
    "address": "東門街214號",
    "location": {
      "lat": 24.80459,
      "lng": 120.9663636
    }
  },
  {
    "name": "COFFEE OWNER",
    "address": "福興東路二段109號",
    "location": {
      "lat": 24.8147209,
      "lng": 121.0286307
    }
  },
  {
    "name": "啡嚐不可咖啡館",
    "address": "北新一街26號1樓",
    "location": {
      "lat": 24.8335113,
      "lng": 121.0245056
    }
  },
  {
    "name": "握咖啡 Oh!Cafe - 新竹金山店",
    "address": "金山八街48號",
    "location": {
      "lat": 24.7778161,
      "lng": 121.0203251
    }
  },
  {
    "name": "提燈咖啡Lightupcafe | 早午餐咖啡廳",
    "address": "復興一街169號",
    "location": {
      "lat": 24.8133964,
      "lng": 121.0329488
    }
  },
  {
    "name": "COFFEE LOVER's PLANET",
    "address": "中央路239號",
    "location": {
      "lat": 24.8102397,
      "lng": 120.9747789
    }
  },
  {
    "name": "Linger131．滯在咖啡所｜無訂位｜入所請降低音量｜禁止商務會議",
    "address": "六家一路一段233號",
    "location": {
      "lat": 24.8081753,
      "lng": 121.0310792
    }
  },
  {
    "name": "言謝咖啡Thank U Cafe",
    "address": "經國路三段92巷29號1樓",
    "location": {
      "lat": 24.7975562,
      "lng": 120.951929
    }
  },
  {
    "name": "墨咖啡 INK COFFEE",
    "address": "林森路180號",
    "location": {
      "lat": 24.799274,
      "lng": 120.9643338
    }
  },
  {
    "name": "貳參咖啡「23COFFEEROASTERS」無訂位服務",
    "address": "西門街152號",
    "location": {
      "lat": 24.8010455,
      "lng": 120.9626898
    }
  },
  {
    "name": "Float Dept.微生咖啡「沒有訂位服務」",
    "address": "民權路111巷23號",
    "location": {
      "lat": 24.8073916,
      "lng": 120.9744697
    }
  },
  {
    "name": "台灣水鹿咖啡館",
    "address": "大同路202號",
    "location": {
      "lat": 24.8077902,
      "lng": 120.9666128
    }
  },
  {
    "name": "Triangle coffee Roasters 三角咖啡館",
    "address": "莊敬北路286號",
    "location": {
      "lat": 24.829474,
      "lng": 121.0264853
    }
  },
  {
    "name": "RD cafe",
    "address": "光復路二段221號",
    "location": {
      "lat": 24.7994418,
      "lng": 120.9912207
    }
  },
  {
    "name": "冰藍沁禾咖啡館 BLCH Coffee Roasters（六、日、國定假日無訂位）",
    "address": "嘉興路239之2號",
    "location": {
      "lat": 24.8180657,
      "lng": 121.0285601
    }
  },
  {
    "name": "達利咖啡二號店Gala Coffee",
    "address": "成功二街15號",
    "location": {
      "lat": 24.8204732,
      "lng": 121.0226245
    }
  },
  {
    "name": "二街咖啡 2nd st. cafe",
    "address": "嘉政二街118號",
    "location": {
      "lat": 24.8061905,
      "lng": 121.0279081
    }
  },
  {
    "name": "106 CAFE 秀婕咖啡",
    "address": "文興路一段123號",
    "location": {
      "lat": 24.8120516,
      "lng": 121.027235
    }
  },
  {
    "name": "COCA COFFEE 渴口手沖咖啡 外帶吧",
    "address": "文興路二段300號旁空地",
    "location": {
      "lat": 24.8055123,
      "lng": 121.0413531
    }
  },
  {
    "name": "FOXLOVE COFFEE 咖啡廳-新竹輕食下午茶|網美下午茶|人氣咖啡|輕食餐廳|輕食點心|在地推薦餐廳",
    "address": "林森路281號",
    "location": {
      "lat": 24.7975409,
      "lng": 120.9621692
    }
  },
  {
    "name": "Share Day Coffee",
    "address": "文仁街32號",
    "location": {
      "lat": 24.8317896,
      "lng": 121.0200534
    }
  },
  {
    "name": "Aspoon Aspoon Cafe阿本 紅蔘咖啡館",
    "address": "復興三路二段168號1樓",
    "location": {
      "lat": 24.8078034,
      "lng": 121.0384386
    }
  },
  {
    "name": "達利自家烘焙咖啡館",
    "address": "建國街37號",
    "location": {
      "lat": 24.8324282,
      "lng": 121.0123538
    }
  },
  {
    "name": "H・Cafe（營業時間以粉專為主，最後點餐時間18:00）",
    "address": "民族路43號",
    "location": {
      "lat": 24.8062933,
      "lng": 120.9742583
    }
  },
  {
    "name": "Basement cafe hsinchu",
    "address": "公道五路四段513號",
    "location": {
      "lat": 24.8272575,
      "lng": 120.966582
    }
  },
  {
    "name": "Deer Nana Cafe",
    "address": "崁頭5鄰81-6號",
    "location": {
      "lat": 24.905788,
      "lng": 121.0131912
    }
  },
  {
    "name": "家族咖啡cafe de famille",
    "address": "嘉興路456號號1f",
    "location": {
      "lat": 24.8237905,
      "lng": 121.0336592
    }
  },
  {
    "name": "內灣咖啡(現烘手沖)",
    "address": "大同路18號",
    "location": {
      "lat": 24.706443,
      "lng": 121.1810689
    }
  },
  {
    "name": "吉伯森自助咖啡屋-Gibson Cafe Self Service Coffee-自家烘焙",
    "address": "No No. 20, 內灣橋",
    "location": {
      "lat": 24.7036738,
      "lng": 121.1834465
    }
  },
  {
    "name": "努哇克咖啡(新竹金城店)",
    "address": "金城一路17號",
    "location": {
      "lat": 24.7937482,
      "lng": 121.0017305
    }
  },
  {
    "name": "Hollatte馥拿鐵 自烘咖啡 竹東店｜假日17:00為最後出杯時間",
    "address": "中興路二段240號",
    "location": {
      "lat": 24.7618738,
      "lng": 121.0614457
    }
  },
  {
    "name": "卉豆咖啡",
    "address": "竹22鄉道81號",
    "location": {
      "lat": 24.7921321,
      "lng": 121.0737954
    }
  },
  {
    "name": "澗飲木食 LEISURE TEA HOUSES",
    "address": "315新竹縣峨眉鄉",
    "location": {
      "lat": 24.6735398,
      "lng": 120.9910943
    }
  },
  {
    "name": "沐 咖啡",
    "address": "光復路一段89巷131號",
    "location": {
      "lat": 24.7784913,
      "lng": 121.0251733
    }
  },
  {
    "name": "上涼山撒牧咖啡工作室",
    "address": "東林路196-1號",
    "location": {
      "lat": 24.738458,
      "lng": 121.0942084
    }
  },
  {
    "name": "咖啡的家",
    "address": "科學園路72號",
    "location": {
      "lat": 24.7851077,
      "lng": 121.0104265
    }
  },
  {
    "name": "W.H. Coffee",
    "address": "135之2號",
    "location": {
      "lat": 24.7342964,
      "lng": 121.1688555
    }
  },
  {
    "name": "內灣野人山丘咖啡館",
    "address": "15 鄰38-2 號",
    "location": {
      "lat": 24.7012973,
      "lng": 121.1819575
    }
  },
  {
    "name": "丹也咖啡（自家烘焙）冷氣開放",
    "address": "峨眉街1-2號",
    "location": {
      "lat": 24.6876566,
      "lng": 121.0222651
    }
  },
  {
    "name": "豆屋自家烘焙咖啡館",
    "address": "中正路12號",
    "location": {
      "lat": 24.7008187,
      "lng": 121.0570805
    }
  },
  {
    "name": "FIKA新竹店",
    "address": "長春路三段38號",
    "location": {
      "lat": 24.7407757,
      "lng": 121.0860683
    }
  },
  {
    "name": "果咖精品咖啡",
    "address": "新莊街129巷39號",
    "location": {
      "lat": 24.787605,
      "lng": 121.0159014
    }
  },
  {
    "name": "山下珈琲|Kōno式手沖專門店",
    "address": "大林村4鄰46-1號",
    "location": {
      "lat": 24.684221,
      "lng": 121.054202
    }
  },
  {
    "name": "Lisa咖啡廳",
    "address": "光復路二段8號",
    "location": {
      "lat": 24.791306,
      "lng": 121.004682
    }
  },
  {
    "name": "春水基地cafe",
    "address": "忠義街50巷1號",
    "location": {
      "lat": 24.670798,
      "lng": 120.988107
    }
  },
  {
    "name": "艾瑞絲咖啡",
    "address": "金城一路10號",
    "location": {
      "lat": 24.7934874,
      "lng": 121.001682
    }
  },
  {
    "name": "Lim Coffee咖啡館",
    "address": "展業一路11號",
    "location": {
      "lat": 24.7837075,
      "lng": 121.0006945
    }
  },
  {
    "name": "cama café -竹東長春店",
    "address": "長春路一段266號",
    "location": {
      "lat": 24.7357014,
      "lng": 121.0893583
    }
  },
  {
    "name": "驛湛咖啡",
    "address": "中興路四段195號",
    "location": {
      "lat": 24.774294,
      "lng": 121.0443073
    }
  },
  {
    "name": "日作咖啡工作室",
    "address": "五和街26巷18號",
    "location": {
      "lat": 24.7336014,
      "lng": 121.1176431
    }
  },
  {
    "name": "長春 1930 café （原長春醫院 ）",
    "address": "長春路二段105號",
    "location": {
      "lat": 24.7392756,
      "lng": 121.0870171
    }
  },
  {
    "name": "五金咖啡 Five Gold Coffee",
    "address": "富林路二段693號之 15",
    "location": {
      "lat": 24.7633053,
      "lng": 121.0872292
    }
  },
  {
    "name": "竹東莫內咖啡",
    "address": "中豐路三段557號",
    "location": {
      "lat": 24.7190057,
      "lng": 121.0745337
    }
  },
  {
    "name": "Touch Cafe",
    "address": "科專六路47號",
    "location": {
      "lat": 24.7072047,
      "lng": 120.9028865
    }
  },
  {
    "name": "磨實 Cafe & Living （營業日請查看粉專置頂公告）",
    "address": "南田街7號350",
    "location": {
      "lat": 24.6819503,
      "lng": 120.8811596
    }
  },
  {
    "name": "YEN Coffee炎咖啡",
    "address": "民安街11巷17號",
    "location": {
      "lat": 24.6941553,
      "lng": 120.880836
    }
  },
  {
    "name": "好喝咖啡豆推薦 努哇克 頭份中華(評鑑導師烘焙)",
    "address": "中華路742號",
    "location": {
      "lat": 24.6806623,
      "lng": 120.9023046
    }
  },
  {
    "name": "竹南12咖啡館自家烘焙",
    "address": "立達街125號",
    "location": {
      "lat": 24.6911935,
      "lng": 120.8778357
    }
  },
  {
    "name": "菡萏咖啡",
    "address": "花園街67號",
    "location": {
      "lat": 24.8036766,
      "lng": 120.9769771
    }
  },
  {
    "name": "鋒人文咖啡館",
    "address": "環市路三段1-1號",
    "location": {
      "lat": 24.68811,
      "lng": 120.8696656
    }
  },
  {
    "name": "Coffee Mafia Roasters",
    "address": "西大路680號",
    "location": {
      "lat": 24.8086279,
      "lng": 120.9607312
    }
  },
  {
    "name": "應景咖啡（營業時間以臉書發文公告為主)",
    "address": "昌隆一街3號",
    "location": {
      "lat": 24.6875044,
      "lng": 120.8996375
    }
  },
  {
    "name": "23 Coffee Roasters Dongda",
    "address": "東大路一段196號",
    "location": {
      "lat": 24.8097988,
      "lng": 120.9710653
    }
  },
  {
    "name": "Amk cafe（每月公休公佈於ins限動）#寵物友善 #只營業至17:30",
    "address": "科專七路241號",
    "location": {
      "lat": 24.7053751,
      "lng": 120.9013982
    }
  },
  {
    "name": "DoDidDone Coffee Cottage",
    "address": "水田街91巷9號",
    "location": {
      "lat": 24.8158634,
      "lng": 120.9674816
    }
  },
  {
    "name": "Back•cafe焙•咖啡",
    "address": "尚順路27號",
    "location": {
      "lat": 24.6864703,
      "lng": 120.9022554
    }
  },
  {
    "name": "瓏之陶咖啡 | 自家陶鍋烘焙 (東門市場三樓)",
    "address": "大同路86號3樓3115室",
    "location": {
      "lat": 24.8050152,
      "lng": 120.9688228
    }
  },
  {
    "name": "客美多咖啡 Komeda‘s Coffee - 新竹公道店",
    "address": "公道五路三段1號",
    "location": {
      "lat": 24.8055183,
      "lng": 120.9915418
    }
  },
  {
    "name": "Coffee SHOT 珈琲夏特",
    "address": "東門市場1049攤號",
    "location": {
      "lat": 24.8047161,
      "lng": 120.968975
    }
  },
  {
    "name": "問號咖啡 Why Coffee Bar",
    "address": "光復路二段960號",
    "location": {
      "lat": 24.8034609,
      "lng": 120.9801212
    }
  },
  {
    "name": "cama café 新竹巨城店",
    "address": "民生路129號",
    "location": {
      "lat": 24.8103277,
      "lng": 120.9767202
    }
  },
  {
    "name": "這家咖啡 Here Café｜冰滴手沖咖啡｜麵包｜餐盒｜甜點外燴",
    "address": "大學路1001號第二餐廳",
    "location": {
      "lat": 24.7893234,
      "lng": 120.9974052
    }
  },
  {
    "name": "go to coffee 熟成咖啡專門店-8月只有五六日營業",
    "address": "公道五路二段263號go to coffee",
    "location": {
      "lat": 24.8022751,
      "lng": 120.9985459
    }
  },
  {
    "name": "cama café 大魯閣湳雅店",
    "address": "大雅路88號1樓",
    "location": {
      "lat": 24.8194389,
      "lng": 120.9699531
    }
  },
  {
    "name": "B . COFFEE dax",
    "address": "華興街142巷5號",
    "location": {
      "lat": 24.8404421,
      "lng": 121.00239
    }
  },
  {
    "name": "COVER CAFE",
    "address": "文昌街73號",
    "location": {
      "lat": 24.8023611,
      "lng": 120.9673661
    }
  },
  {
    "name": "達利咖啡館/新竹關新店",
    "address": "關新二街",
    "location": {
      "lat": 24.7861511,
      "lng": 121.0173578
    }
  },
  {
    "name": "Pain de mie 胖多米咖啡館",
    "address": "2樓, No. 148號世界街",
    "location": {
      "lat": 24.8073013,
      "lng": 120.9669079
    }
  },
  {
    "name": "GB5用心的咖啡",
    "address": "興學街96號",
    "location": {
      "lat": 24.7974845,
      "lng": 120.9660671
    }
  },
  {
    "name": "Kawa Cake Coffee 川蛋糕咖啡(全預約制)",
    "address": "東勝路55號",
    "location": {
      "lat": 24.8036008,
      "lng": 120.9874229
    }
  },
  {
    "name": "想咖啡・Miss Cafe'",
    "address": "金雅一街16號",
    "location": {
      "lat": 24.8242041,
      "lng": 120.9630011
    }
  },
  {
    "name": "C2C cafe自家烘焙咖啡館",
    "address": "中興路599號",
    "location": {
      "lat": 24.6955512,
      "lng": 120.9082258
    }
  },
  {
    "name": "Louisa Coffee 路易莎咖啡(新竹市府門市)",
    "address": "北大路162號",
    "location": {
      "lat": 24.8098065,
      "lng": 120.9678325
    }
  },
  {
    "name": "巴尚咖啡（ 窯烤.下午茶.麵包.披薩）",
    "address": "羅馬路六段400號",
    "location": {
      "lat": 24.7839219,
      "lng": 121.2757874
    }
  },
  {
    "name": "龍咖啡 Long Coffee",
    "address": "中豐路上林段115巷11號2樓",
    "location": {
      "lat": 24.8628351,
      "lng": 121.2082531
    }
  },
  {
    "name": "旅人咖啡館.龍潭店",
    "address": "中正路310號",
    "location": {
      "lat": 24.8614382,
      "lng": 121.2175732
    }
  },
  {
    "name": "BeiZi Coffee Roaster｜自家烘焙咖啡",
    "address": "文化路162-1號",
    "location": {
      "lat": 24.8413684,
      "lng": 121.2408076
    }
  },
  {
    "name": "熟客精品咖啡 ｜花香淺焙|果香中焙| 自家烘焙|濾掛",
    "address": "成德二街45號",
    "location": {
      "lat": 24.9147591,
      "lng": 121.1463992
    }
  },
  {
    "name": "HWC黑沃咖啡 龍潭北龍店",
    "address": "北龍路167號",
    "location": {
      "lat": 24.8668281,
      "lng": 121.2151057
    }
  },
  {
    "name": "Lantu Jia Cafe 咖啡烘焙,起士蛋糕專賣。平日前往建議先電話預約唷",
    "address": "民治七街122號",
    "location": {
      "lat": 24.821676,
      "lng": 121.238798
    }
  },
  {
    "name": "91°N CAFE NATION 楊梅",
    "address": "大成路92號",
    "location": {
      "lat": 24.9102168,
      "lng": 121.1457346
    }
  },
  {
    "name": "瓦特咖啡water&coffee",
    "address": "萬大路138巷17號",
    "location": {
      "lat": 24.9094265,
      "lng": 121.1779067
    }
  },
  {
    "name": "尼爾瓦特 NEAR WATER café",
    "address": "龍源路大平段690巷105號",
    "location": {
      "lat": 24.8244253,
      "lng": 121.2496653
    }
  },
  {
    "name": "茉莉花園caf’e",
    "address": "中正路三坑段511號",
    "location": {
      "lat": 24.8372252,
      "lng": 121.2462975
    }
  },
  {
    "name": "麥売 珈琲・洋食・菓子 (麥Mai咖啡) |自家烘焙咖啡|網美咖啡廳|日系咖啡廳|必吃下午茶|精品咖啡豆|手作甜點",
    "address": "新成路23號",
    "location": {
      "lat": 24.9126026,
      "lng": 121.1469982
    }
  },
  {
    "name": "KIMOJI 咖啡館 （假日無接受訂位）颱風假暫停營業",
    "address": "民治路375號",
    "location": {
      "lat": 24.8207469,
      "lng": 121.2375122
    }
  },
  {
    "name": "莎頌邦 自家烘焙豆工坊/咖啡粉/咖啡豆/掛耳式咖啡",
    "address": "三民路30號",
    "location": {
      "lat": 24.9074997,
      "lng": 121.1700723
    }
  },
  {
    "name": "享夜景觀咖啡EnjoyNight",
    "address": "楊銅路二段678巷16號",
    "location": {
      "lat": 24.8673274,
      "lng": 121.184622
    }
  },
  {
    "name": "DONG TIAN Coffee 東田日式慢烘（極淺焙咖啡專賣店 自家烘焙咖啡）",
    "address": "萬大路164巷3號",
    "location": {
      "lat": 24.9089933,
      "lng": 121.1786713
    }
  },
  {
    "name": "巴絡客咖啡Barocco cafe瑞梅店",
    "address": "瑞梅街220巷9號",
    "location": {
      "lat": 24.9088827,
      "lng": 121.1763651
    }
  },
  {
    "name": "Y.J COFFEE 玉津咖啡-楊梅睿獅店",
    "address": "梅獅路二段198號",
    "location": {
      "lat": 24.9057863,
      "lng": 121.1773507
    }
  },
  {
    "name": "Drip Note COFFEE 滴音咖啡",
    "address": "新農街366號",
    "location": {
      "lat": 24.9115021,
      "lng": 121.1566978
    }
  },
  {
    "name": "迴紋針日常 畫畫咖啡廳",
    "address": "龍華路223號",
    "location": {
      "lat": 24.8615017,
      "lng": 121.2172078
    }
  },
  {
    "name": "香魚咖啡",
    "address": "佳安西路5號A棟1樓",
    "location": {
      "lat": 24.8363044,
      "lng": 121.2394515
    }
  },
  {
    "name": "吾舍。生活 Woosah-Life",
    "address": "民生路191號",
    "location": {
      "lat": 24.8467099,
      "lng": 121.2260136
    }
  },
  {
    "name": "大樹咖啡（公休請見臉書）",
    "address": "中豐新路36號1樓",
    "location": {
      "lat": 24.7813531,
      "lng": 121.1797978
    }
  },
  {
    "name": "橘子碰cafe'",
    "address": "81號",
    "location": {
      "lat": 24.7655753,
      "lng": 121.122499
    }
  },
  {
    "name": "竺園咖啡館",
    "address": "民有路267號",
    "location": {
      "lat": 24.8210936,
      "lng": 121.2399972
    }
  },
  {
    "name": "漫境 Man Juan",
    "address": "大北坑街1998巷139號",
    "location": {
      "lat": 24.8694034,
      "lng": 121.1643774
    }
  },
  {
    "name": "好喝咖啡豆推薦 努哇克 竹北光明(評鑑導師烘焙)",
    "address": "光明九路195號",
    "location": {
      "lat": 24.8264346,
      "lng": 121.0074873
    }
  },
  {
    "name": "Jin Coffee",
    "address": "文采街133號",
    "location": {
      "lat": 24.8338798,
      "lng": 121.0185856
    }
  },
  {
    "name": "一想一響咖啡 【持續徵人中！】歡迎投履歷。沒有提供訂位服務）",
    "address": "民生路58巷8號",
    "location": {
      "lat": 24.8084385,
      "lng": 120.9790659
    }
  },
  {
    "name": "井井咖啡廳",
    "address": "建功一路170號",
    "location": {
      "lat": 24.8016904,
      "lng": 120.9966641
    }
  },
  {
    "name": "貓禾咖啡",
    "address": "環北路五段410號",
    "location": {
      "lat": 24.8358548,
      "lng": 120.9972523
    }
  },
  {
    "name": "布卡堤咖啡 - 手沖精品咖啡，精品咖啡，書本音樂咖啡",
    "address": "溪州路242號",
    "location": {
      "lat": 24.8373183,
      "lng": 120.9843124
    }
  },
  {
    "name": "佐岸夜景咖啡 9E Café♥️寵物友善♥️營業時間，晚上七點到凌晨三點♥️無須訂位，來就對了♥️非營業時間請勿來電，謝謝♥️",
    "address": "新湖路200號",
    "location": {
      "lat": 24.8511123,
      "lng": 121.0269518
    }
  },
  {
    "name": "Hollatte馥拿鐵 自烘咖啡 竹北店",
    "address": "勝利三街150號",
    "location": {
      "lat": 24.8225397,
      "lng": 121.028594
    }
  },
  {
    "name": "溫島 Wen Dao café",
    "address": "自由路66巷15號",
    "location": {
      "lat": 24.8140319,
      "lng": 120.9809071
    }
  },
  {
    "name": "some in café (商隱咖啡）",
    "address": "十興路305巷13弄81號",
    "location": {
      "lat": 24.8310495,
      "lng": 121.0232171
    }
  },
  {
    "name": "COFFEE OBJECT咖啡曜日（外帶咖啡bar、植感飲食、寵物友善）",
    "address": "光明六路東一段245號",
    "location": {
      "lat": 24.820706,
      "lng": 121.0267505
    }
  },
  {
    "name": "點 咖啡(黃梨園點心店)",
    "address": "6號35",
    "location": {
      "lat": 24.8436432,
      "lng": 121.125076
    }
  },
  {
    "name": "J6覓境咖啡",
    "address": "七鄰81號",
    "location": {
      "lat": 24.8097155,
      "lng": 121.0562001
    }
  },
  {
    "name": "聊夏貓旅x咖啡（寵物友善）",
    "address": "高鐵一路19號",
    "location": {
      "lat": 24.8097252,
      "lng": 121.0384637
    }
  },
  {
    "name": "自然在家書坊（FB私訊預約，謝謝）",
    "address": "1鄰14之1號",
    "location": {
      "lat": 24.7032954,
      "lng": 121.2124125
    }
  },
  {
    "name": "楠桂坊咖啡舖",
    "address": "竹林村和平154-1號",
    "location": {
      "lat": 24.619318,
      "lng": 121.1176087
    }
  },
  {
    "name": "沛瑅絲",
    "address": "6鄰36-2號",
    "location": {
      "lat": 24.682646,
      "lng": 121.217701
    }
  },
  {
    "name": "萃萃咖啡TsuiCafe",
    "address": "竹60鄉道151號",
    "location": {
      "lat": 24.7070794,
      "lng": 121.2081553
    }
  },
  {
    "name": "歐加比咖啡莊園",
    "address": "312新竹縣橫山鄉",
    "location": {
      "lat": 24.683819,
      "lng": 121.1248915
    }
  },
  {
    "name": "三騰咖啡",
    "address": "307新竹縣芎林鄉",
    "location": {
      "lat": 24.7538774,
      "lng": 121.0984354
    }
  },
  {
    "name": "馬武督咖啡生產合作社",
    "address": "28-1號",
    "location": {
      "lat": 24.7680198,
      "lng": 121.2221848
    }
  },
  {
    "name": "最初咖啡(無訂位服務）",
    "address": "中正路46號",
    "location": {
      "lat": 24.7059683,
      "lng": 121.181246
    }
  },
  {
    "name": "品客好客生活餐飲",
    "address": "139-1、",
    "location": {
      "lat": 24.7055132,
      "lng": 121.1830836
    }
  },
  {
    "name": "舊事生活 Old & Crazy",
    "address": "東林路194巷8號",
    "location": {
      "lat": 24.7375404,
      "lng": 121.0951466
    }
  },
  {
    "name": "渦窩山房（無訂位，營業時間以臉書粉專及IG公告為主）",
    "address": "314新竹縣北埔鄉",
    "location": {
      "lat": 24.6880863,
      "lng": 121.0525746
    }
  },
  {
    "name": "圓樓咖啡",
    "address": "大同路99號",
    "location": {
      "lat": 24.705224,
      "lng": 121.1793367
    }
  },
  {
    "name": "新竹五峰撒牧咖啡",
    "address": "隘蘭聯絡道路",
    "location": {
      "lat": 24.6091014,
      "lng": 121.1003188
    }
  },
  {
    "name": "山吹舍",
    "address": "公園街16巷11號",
    "location": {
      "lat": 24.6993002,
      "lng": 121.0583317
    }
  },
  {
    "name": "上山喝咖啡",
    "address": "1-20號",
    "location": {
      "lat": 24.6827424,
      "lng": 121.1375315
    }
  },
  {
    "name": "馬武督咖啡廳",
    "address": "馬武督31-1號",
    "location": {
      "lat": 24.7677509,
      "lng": 121.2180766
    }
  },
  {
    "name": "Z cafe",
    "address": "錦屏村8鄰那羅42-1號",
    "location": {
      "lat": 24.6799659,
      "lng": 121.2429271
    }
  },
  {
    "name": "米+茶 coffee & meals",
    "address": "3鄰179-8號",
    "location": {
      "lat": 24.7051706,
      "lng": 121.2124372
    }
  },
  {
    "name": "風情萬景咖啡",
    "address": "Unnamed Road, 307",
    "location": {
      "lat": 24.7616526,
      "lng": 121.1167317
    }
  },
  {
    "name": "品苑馨森活",
    "address": "307新竹縣芎林鄉",
    "location": {
      "lat": 24.7688803,
      "lng": 121.100329
    }
  },
  {
    "name": "燒炭窩 竹風樂境",
    "address": "五龍村九鄰76號",
    "location": {
      "lat": 24.7376948,
      "lng": 121.1142365
    }
  },
  {
    "name": "大山背橫山會館",
    "address": "312新竹縣橫山鄉",
    "location": {
      "lat": 24.692775,
      "lng": 121.129674
    }
  },
  {
    "name": "沙湖壢咖啡館",
    "address": "山湖路63號",
    "location": {
      "lat": 24.7500512,
      "lng": 121.0446662
    }
  },
  {
    "name": "SRC北埔印象景觀庭園咖啡民宿/早午餐/下午茶/晚餐晚餐",
    "address": "水磜子4鄰50號",
    "location": {
      "lat": 24.7122837,
      "lng": 121.0704847
    }
  },
  {
    "name": "SKY & TREES",
    "address": "六鄰",
    "location": {
      "lat": 24.6772651,
      "lng": 121.099675
    }
  },
  {
    "name": "愛上咖啡",
    "address": "公園街29號",
    "location": {
      "lat": 24.6985313,
      "lng": 121.0574684
    }
  },
  {
    "name": "羊群莊園珈琲工作室",
    "address": "龍鳳路16號1樓",
    "location": {
      "lat": 24.7296032,
      "lng": 121.093136
    }
  },
  {
    "name": "茉莉咖啡館",
    "address": "長春路一段59號1樓",
    "location": {
      "lat": 24.7307644,
      "lng": 121.0915559
    }
  },
  {
    "name": "小城慢食",
    "address": "南興街15號",
    "location": {
      "lat": 24.6983842,
      "lng": 121.0570143
    }
  },
  {
    "name": "外送",
    "address": "康莊街170號",
    "location": {
      "lat": 24.738293,
      "lng": 121.0822679
    }
  },
  {
    "name": "大山背人文生態館",
    "address": "大山背80號",
    "location": {
      "lat": 24.685477,
      "lng": 121.138934
    }
  },
  {
    "name": "47 Cafe",
    "address": "東峰路47號",
    "location": {
      "lat": 24.7209652,
      "lng": 121.0965603
    }
  },
  {
    "name": "浪漫台三線81k",
    "address": "台三線81公里處",
    "location": {
      "lat": 24.703455,
      "lng": 121.056251
    }
  },
  {
    "name": "遷徙咖啡民宿｜咖啡廳、餐廳、蛋糕下午茶 對外開放｜訂房請至fb私訊",
    "address": "和平街18號",
    "location": {
      "lat": 24.7068988,
      "lng": 121.1802207
    }
  },
  {
    "name": "森活咖啡",
    "address": "46-3臨",
    "location": {
      "lat": 24.6845314,
      "lng": 121.1017383
    }
  },
  {
    "name": "薰衣草森林咖啡館",
    "address": "313",
    "location": {
      "lat": 24.7323207,
      "lng": 121.2332573
    }
  },
  {
    "name": "隆源餅行（南興店）",
    "address": "南興街96號",
    "location": {
      "lat": 24.7000305,
      "lng": 121.0571222
    }
  },
  {
    "name": "恆珊農場",
    "address": "312新竹縣橫山鄉",
    "location": {
      "lat": 24.7269588,
      "lng": 121.1535808
    }
  },
  {
    "name": "茶米二十三",
    "address": "南興街142號",
    "location": {
      "lat": 24.7012639,
      "lng": 121.0572169
    }
  },
  {
    "name": "老時光",
    "address": "公園街18巷10號",
    "location": {
      "lat": 24.6991929,
      "lng": 121.0582742
    }
  },
  {
    "name": "大山背松香園",
    "address": "312新竹縣橫山鄉",
    "location": {
      "lat": 24.6876305,
      "lng": 121.1438501
    }
  },
  {
    "name": "綠茵生態農場",
    "address": "312新竹縣橫山鄉",
    "location": {
      "lat": 24.7091573,
      "lng": 121.1584367
    }
  },
  {
    "name": "新天井",
    "address": "公園街18巷10號",
    "location": {
      "lat": 24.6986156,
      "lng": 121.0580416
    }
  },
  {
    "name": "獅頭山４C沁畇咖啡",
    "address": "獅山242號",
    "location": {
      "lat": 24.6413177,
      "lng": 121.010439
    }
  },
  {
    "name": "米芾藝術茶坊",
    "address": "秀峦街3巷4號",
    "location": {
      "lat": 24.6989076,
      "lng": 121.0587081
    }
  },
  {
    "name": "請問Coffee",
    "address": "68之2號",
    "location": {
      "lat": 24.6246814,
      "lng": 121.1477689
    }
  },
  {
    "name": "鄉巴佬咖啡屋",
    "address": "98號",
    "location": {
      "lat": 24.7113011,
      "lng": 121.1366715
    }
  },
  {
    "name": "芝心咖啡",
    "address": "314新竹縣北埔鄉",
    "location": {
      "lat": 24.7057868,
      "lng": 121.0628032
    }
  },
  {
    "name": "碧絡角 Biluojiao(最後入園&點餐時間:16:30)",
    "address": "東河村 橫屏背12鄰25號",
    "location": {
      "lat": 24.6162785,
      "lng": 121.0387046
    }
  },
  {
    "name": "山行玫瑰",
    "address": "353苗栗縣南庄鄉",
    "location": {
      "lat": 24.614157,
      "lng": 121.0396571
    }
  },
  {
    "name": "竹林居",
    "address": "72之3號",
    "location": {
      "lat": 24.6164394,
      "lng": 121.0195253
    }
  },
  {
    "name": "85度C 竹東中豐店",
    "address": "中豐路二段21號",
    "location": {
      "lat": 24.7218898,
      "lng": 121.0958308
    }
  },
  {
    "name": "大山北月",
    "address": "大山背80號",
    "location": {
      "lat": 24.685446,
      "lng": 121.138983
    }
  },
  {
    "name": "雨岩",
    "address": "314新竹縣北埔鄉",
    "location": {
      "lat": 24.6428951,
      "lng": 121.0900012
    }
  },
  {
    "name": "拾樂坊",
    "address": "中正路76號",
    "location": {
      "lat": 24.7007805,
      "lng": 121.0545875
    }
  },
  {
    "name": "Obubu’ Cafe 擺渡。浪 咖啡",
    "address": "中山路11號",
    "location": {
      "lat": 24.7017182,
      "lng": 121.0570856
    }
  },
  {
    "name": "內灣老街養樂多冰沙",
    "address": "312新竹縣橫山鄉",
    "location": {
      "lat": 24.7057594,
      "lng": 121.1781975
    }
  },
  {
    "name": "瓦祿產業文化館",
    "address": "東河村5鄰78號",
    "location": {
      "lat": 24.5988645,
      "lng": 121.0410932
    }
  },
  {
    "name": "塔希爾的家",
    "address": "313، Beijiao bridge",
    "location": {
      "lat": 24.7008731,
      "lng": 121.1992605
    }
  },
  {
    "name": "天水茶房",
    "address": "北埔街35號",
    "location": {
      "lat": 24.6997131,
      "lng": 121.0570064
    }
  },
  {
    "name": "五指山金線蓮",
    "address": "六股20號之一",
    "location": {
      "lat": 24.6417666,
      "lng": 121.0881448
    }
  },
  {
    "name": "藤坪山庄",
    "address": "2號",
    "location": {
      "lat": 24.6507392,
      "lng": 121.0300214
    }
  },
  {
    "name": "樹舍迎風13.7k樹屋咖啡",
    "address": "313新竹縣尖石鄉",
    "location": {
      "lat": 24.6706244,
      "lng": 121.2743175
    }
  },
  {
    "name": "小品書屋",
    "address": "中豐路一段117號",
    "location": {
      "lat": 24.7842333,
      "lng": 121.178865
    }
  },
  {
    "name": "西雅圖極品咖啡 關西服務區",
    "address": "上三屯14號",
    "location": {
      "lat": 24.801103,
      "lng": 121.192443
    }
  },
  {
    "name": "Posuo coffee studio 本店",
    "address": "中豐路一段385號",
    "location": {
      "lat": 24.7915095,
      "lng": 121.1784483
    }
  },
  {
    "name": "塔那咖啡.簡餐.下午茶",
    "address": "羅馬公路六段760號",
    "location": {
      "lat": 24.7802183,
      "lng": 121.2658953
    }
  },
  {
    "name": "穧粑崠咖啡農場",
    "address": "湳窩路250巷123弄260號",
    "location": {
      "lat": 24.810604,
      "lng": 121.2066363
    }
  },
  {
    "name": "汪汪來我家實驗生活2號店",
    "address": "中正路62號",
    "location": {
      "lat": 24.7890785,
      "lng": 121.1764972
    }
  },
  {
    "name": "意若思咖啡",
    "address": "嘉政七街82 號1 樓",
    "location": {
      "lat": 24.8052923,
      "lng": 121.0317069
    }
  },
  {
    "name": "WIN COFFEE 唯盈直火手網咖啡豆專賣店預購(請先電話或加入官網line@預約)",
    "address": "楊湖路三段751巷36弄67號",
    "location": {
      "lat": 24.9104314,
      "lng": 121.0793062
    }
  },
  {
    "name": "K.W. GARDEN (無訂位服務)",
    "address": "民族街2號",
    "location": {
      "lat": 24.9000752,
      "lng": 121.0439033
    }
  },
  {
    "name": "荅森咖啡",
    "address": "達生一街37號",
    "location": {
      "lat": 24.8954262,
      "lng": 121.045359
    }
  },
  {
    "name": "楊梅咖啡（工地）",
    "address": "校前路1226號",
    "location": {
      "lat": 24.8805083,
      "lng": 121.1522786
    }
  },
  {
    "name": "韋克精品咖啡工作室",
    "address": "環南路320號",
    "location": {
      "lat": 24.904611,
      "lng": 121.1434892
    }
  },
  {
    "name": "E+1 SHOP/Coffee",
    "address": "中和街28-2號",
    "location": {
      "lat": 24.9019464,
      "lng": 121.0479344
    }
  },
  {
    "name": "新埔鎮農會咖啡廳",
    "address": "楊新路一段322號",
    "location": {
      "lat": 24.8307911,
      "lng": 121.0881034
    }
  },
  {
    "name": "布雷克咖啡",
    "address": "安宅四街7號",
    "location": {
      "lat": 24.8708543,
      "lng": 121.0298453
    }
  },
  {
    "name": "林把拔咖啡烘焙 088cafe (林爸爸咖啡)",
    "address": "自立街29巷14號",
    "location": {
      "lat": 24.911812,
      "lng": 121.1497808
    }
  },
  {
    "name": "貳弄一號咖啡館 (限定營業日）",
    "address": "中興路平鎮段443巷2弄1號",
    "location": {
      "lat": 24.8997065,
      "lng": 121.193702
    }
  },
  {
    "name": "The Polo Cafe 新竹巨城店",
    "address": "中央路229號三樓",
    "location": {
      "lat": 24.809627,
      "lng": 120.975023
    }
  },
  {
    "name": "inBush - Bar, Cafe, Flower｜花店、花束｜手沖咖啡、甜點、輕食｜精緻調酒｜",
    "address": "長春街60號",
    "location": {
      "lat": 24.7859789,
      "lng": 121.0149165
    }
  },
  {
    "name": "吉森咖啡•烘豆坊",
    "address": "康樂路一段144之1號",
    "location": {
      "lat": 24.8675455,
      "lng": 120.9894743
    }
  },
  {
    "name": "樂玩咖啡|頭份旗艦店【不只喝咖啡,還可以烘咖啡豆】",
    "address": "自強路二段502號",
    "location": {
      "lat": 24.6826847,
      "lng": 120.8845043
    }
  },
  {
    "name": "G+ Cafe’ Roaster",
    "address": "博愛街293號",
    "location": {
      "lat": 24.6878384,
      "lng": 120.8694923
    }
  },
  {
    "name": "DAZE_COFFEE〈 自烘咖啡、單品.義式熟豆.濾掛.甜點販售、外送 〉",
    "address": "大埔街113號",
    "location": {
      "lat": 24.7114755,
      "lng": 120.9066351
    }
  },
  {
    "name": "達蘑咖啡焙煎所",
    "address": "青年街12號1樓",
    "location": {
      "lat": 24.7008865,
      "lng": 120.90106
    }
  },
  {
    "name": "HWC黑沃咖啡 頭份忠孝店",
    "address": "忠孝一路49號1樓",
    "location": {
      "lat": 24.6892148,
      "lng": 120.9070241
    }
  },
  {
    "name": "屋咖人（假日預約制，無接待第五人以上團體 ）",
    "address": "中華路53巷10號",
    "location": {
      "lat": 24.6635365,
      "lng": 120.8788063
    }
  },
  {
    "name": "Ho 珈琲",
    "address": "東民一街36號",
    "location": {
      "lat": 24.6875384,
      "lng": 120.9019512
    }
  },
  {
    "name": "品皇咖啡食品原料行(竹南龍天店)",
    "address": "龍天路117號",
    "location": {
      "lat": 24.694013,
      "lng": 120.8703734
    }
  },
  {
    "name": "心山豆咖啡",
    "address": "中華路五段522巷23號",
    "location": {
      "lat": 24.7733972,
      "lng": 120.916586
    }
  },
  {
    "name": "芸咖啡",
    "address": "建國路二段296號",
    "location": {
      "lat": 24.694265,
      "lng": 120.9001238
    }
  },
  {
    "name": "子晴花與咖啡的幸福",
    "address": "大埔三街23號",
    "location": {
      "lat": 24.7088848,
      "lng": 120.9012594
    }
  },
  {
    "name": "檸· 咖啡-頭份打卡餐酒館|特色餐酒館|人氣下午茶|必吃餐酒館|頭份酒吧|熱門餐酒館",
    "address": "建國路二段1之5號",
    "location": {
      "lat": 24.696969,
      "lng": 120.9071405
    }
  },
  {
    "name": "欣樂園咖啡館",
    "address": "龍山路二段122號",
    "location": {
      "lat": 24.697774,
      "lng": 120.8702557
    }
  },
  {
    "name": "前方有路 飛帆旗艦店(飛帆生活藝術·人文·咖啡館)新竹自烘咖啡豆 新竹咖啡廳 新竹甜點 新竹下午茶 香山甜點 新竹身心靈整合 新竹占卜算命",
    "address": "中華路六段78-8號",
    "location": {
      "lat": 24.7499277,
      "lng": 120.9080213
    }
  },
  {
    "name": "品悅咖啡",
    "address": "龍天路11號",
    "location": {
      "lat": 24.6920678,
      "lng": 120.8724179
    }
  },
  {
    "name": "4姊江志美咖啡屋",
    "address": "真如路39-45號號",
    "location": {
      "lat": 24.677753,
      "lng": 120.871095
    }
  },
  {
    "name": "N2GO頭份尚順店",
    "address": "東民二街20號1樓",
    "location": {
      "lat": 24.6882079,
      "lng": 120.9029277
    }
  },
  {
    "name": "田美咖啡莊園(咖啡豆網路專賣,店面預約取貨)自家烘焙咖啡豆,新竹精品咖啡,SCA Q grade,",
    "address": "牛埔東路38號2F",
    "location": {
      "lat": 24.799309,
      "lng": 120.950319
    }
  },
  {
    "name": "歐客佬精品咖啡 苗栗頭份店",
    "address": "忠孝一路177號",
    "location": {
      "lat": 24.6913663,
      "lng": 120.9108771
    }
  },
  {
    "name": "長工嘎逼",
    "address": "民生路30號",
    "location": {
      "lat": 24.6814455,
      "lng": 120.8639777
    }
  },
  {
    "name": "CITY CAFE",
    "address": "351苗栗縣頭份市",
    "location": {
      "lat": 24.6833813,
      "lng": 120.9059666
    }
  },
  {
    "name": "示畐",
    "address": "東華路71號1樓",
    "location": {
      "lat": 24.7946652,
      "lng": 120.9450657
    }
  },
  {
    "name": "海癮咖啡 High IN coffee(每週六日營業，下大雨颳大風公休)",
    "address": "90號",
    "location": {
      "lat": 24.6947798,
      "lng": 120.8531152
    }
  },
  {
    "name": "星語瓢蟲咖啡",
    "address": "東民二街39號",
    "location": {
      "lat": 24.6878249,
      "lng": 120.9016177
    }
  },
  {
    "name": "壹咖啡(苗栗竹南店)",
    "address": "和平街52號",
    "location": {
      "lat": 24.6844021,
      "lng": 120.8776789
    }
  },
  {
    "name": "春子家 Harukoke《每月公休於IG貼文》",
    "address": "科專六路317號",
    "location": {
      "lat": 24.7084066,
      "lng": 120.8964701
    }
  },
  {
    "name": "壹咖啡 (頭份門市)",
    "address": "中華路923號",
    "location": {
      "lat": 24.6836312,
      "lng": 120.9057044
    }
  },
  {
    "name": "514 咖啡聽",
    "address": "光復路514號",
    "location": {
      "lat": 24.7009095,
      "lng": 120.879666
    }
  },
  {
    "name": "拾·好時foodimemory",
    "address": "照南路116號",
    "location": {
      "lat": 24.6957141,
      "lng": 120.8765719
    }
  },
  {
    "name": "悠境簡餐",
    "address": "水源路419號",
    "location": {
      "lat": 24.6689735,
      "lng": 120.9173085
    }
  },
  {
    "name": "Night Owl Cafe貓頭鷹",
    "address": "大埔五街182號",
    "location": {
      "lat": 24.7084026,
      "lng": 120.9004946
    }
  },
  {
    "name": "木棉花田園咖啡",
    "address": "350苗栗縣竹南鎮",
    "location": {
      "lat": 24.6709743,
      "lng": 120.8715713
    }
  },
  {
    "name": "Apple mami Pâtisserie甜點工作室",
    "address": "中央路154巷36弄5號",
    "location": {
      "lat": 24.6903579,
      "lng": 120.9059967
    }
  },
  {
    "name": "伴 Life Partner（下午時段只供應飲品甜點）",
    "address": "科專二路291號",
    "location": {
      "lat": 24.7110944,
      "lng": 120.9059383
    }
  },
  {
    "name": "新竹市香山區牛埔東路",
    "address": "大庄路17號",
    "location": {
      "lat": 24.7889159,
      "lng": 120.9284645
    }
  },
  {
    "name": "1920 Cafe",
    "address": "科東三路8號2f",
    "location": {
      "lat": 24.707059,
      "lng": 120.919933
    }
  },
  {
    "name": "cama café 苗栗頭份店",
    "address": "建國路43號",
    "location": {
      "lat": 24.6936141,
      "lng": 120.9133275
    }
  },
  {
    "name": "85度C 新竹中華店",
    "address": "中華路四段568號",
    "location": {
      "lat": 24.7890957,
      "lng": 120.9302101
    }
  },
  {
    "name": "長治天下",
    "address": "長治街1號",
    "location": {
      "lat": 24.6906534,
      "lng": 120.9107411
    }
  },
  {
    "name": "萱吉夫婦",
    "address": "自由街106號",
    "location": {
      "lat": 24.6879044,
      "lng": 120.8753183
    }
  },
  {
    "name": "白色廚房咖啡廳",
    "address": "博愛街879號",
    "location": {
      "lat": 24.6934883,
      "lng": 120.8607091
    }
  },
  {
    "name": "戀戀咖啡茶坊-LIAN LIAN CAFE TEA ｜咖啡•茶飲•鬆餅•奶蓋•黑糖鮮奶•蝶豆花",
    "address": "光復路536號1樓",
    "location": {
      "lat": 24.7019063,
      "lng": 120.8796505
    }
  },
  {
    "name": "雲朵森林x泳池咖啡",
    "address": "花園東路75號2樓",
    "location": {
      "lat": 24.6914208,
      "lng": 120.9435408
    }
  },
  {
    "name": "窗裡窗外（簡餐｜咖啡｜早午餐｜客製蛋糕｜寵物友善）",
    "address": "和平路118號",
    "location": {
      "lat": 24.686268,
      "lng": 120.9057458
    }
  },
  {
    "name": "台三線99.6咖啡",
    "address": "5鄰下林坪 83號",
    "location": {
      "lat": 24.6336124,
      "lng": 120.9552164
    }
  },
  {
    "name": "保羅啡嚐99",
    "address": "號",
    "location": {
      "lat": 24.6392938,
      "lng": 120.9556569
    }
  },
  {
    "name": "松田村咖啡莊",
    "address": "湖光村12寮12鄰1號",
    "location": {
      "lat": 24.6691259,
      "lng": 120.9916794
    }
  },
  {
    "name": "蓮姐咖啡",
    "address": "東林路7號",
    "location": {
      "lat": 24.7367786,
      "lng": 121.0886331
    }
  },
  {
    "name": "嫄美文創精品咖啡館",
    "address": "榮樂街17號",
    "location": {
      "lat": 24.7382927,
      "lng": 121.088867
    }
  },
  {
    "name": "慢慢的咖啡吧",
    "address": "大亨街46號",
    "location": {
      "lat": 24.6958728,
      "lng": 120.9056506
    }
  },
  {
    "name": "花草巷弄咖啡屋",
    "address": "中正新村171號",
    "location": {
      "lat": 24.6868718,
      "lng": 120.9570764
    }
  },
  {
    "name": "琴啡得意",
    "address": "315新竹縣峨眉鄉",
    "location": {
      "lat": 24.6713194,
      "lng": 120.994433
    }
  },
  {
    "name": "峨眉十二咖啡館",
    "address": "十二寮13鄰16號",
    "location": {
      "lat": 24.6723986,
      "lng": 120.993072
    }
  },
  {
    "name": "恩琲咖啡Onffee頭份店",
    "address": "中央路498號",
    "location": {
      "lat": 24.6944139,
      "lng": 120.8964023
    }
  },
  {
    "name": "司馬庫斯部落咖啡館",
    "address": "新竹縣尖石鄉",
    "location": {
      "lat": 24.5785581,
      "lng": 121.3345064
    }
  },
  {
    "name": "喜嵐咖啡",
    "address": "秀巒道路",
    "location": {
      "lat": 24.6201053,
      "lng": 121.2866079
    }
  },
  {
    "name": "哥寂寞qzimux 手沖咖啡（季節性據點）coffee 咖啡豆線上訂購 店到店貨到付款",
    "address": "泰崗6鄰11-1號",
    "location": {
      "lat": 24.6155838,
      "lng": 121.2945977
    }
  }
]