[
  {
    "name": "油桐花坊",
    "address": "公館鄉福德村打鹿坑福德35之3號",
    "location": {
      "lat": 24.4763731,
      "lng": 120.8562351
    }
  },
  {
    "name": "山芙蓉咖啡藝廊",
    "address": "南庄鄉蓬萊村9鄰8號",
    "location": {
      "lat": 24.5341478,
      "lng": 120.9630214
    }
  },
  {
    "name": "鹿野觀雲民宿",
    "address": "公館鄉福德村35-11號",
    "location": {
      "lat": 24.474163,
      "lng": 120.853298
    }
  },
  {
    "name": "微光景",
    "address": "公館鄉南河村9鄰98-2號",
    "location": {
      "lat": 24.5105091,
      "lng": 120.872704
    }
  },
  {
    "name": "蘋的文創手做工作室",
    "address": "公館鄉福基段24 號",
    "location": {
      "lat": 24.4729816,
      "lng": 120.831194
    }
  },
  {
    "name": "陳教練咖啡莊園",
    "address": "公館鄉福基村舊後汶公路123-3號",
    "location": {
      "lat": 24.4721956,
      "lng": 120.8299917
    }
  },
  {
    "name": "行家茶葉藝術中心",
    "address": "167 號, 開礦隧道, 公館鄉",
    "location": {
      "lat": 24.455464,
      "lng": 120.851588
    }
  },
  {
    "name": "巴巴坑道休閒礦場",
    "address": "三灣鄉15-1號",
    "location": {
      "lat": 24.6459972,
      "lng": 120.9995
    }
  },
  {
    "name": "山行玫瑰",
    "address": "南庄鄉25-1號",
    "location": {
      "lat": 24.6141461,
      "lng": 121.039728
    }
  },
  {
    "name": "向天湖咖啡民宿",
    "address": "南庄鄉向天湖26號",
    "location": {
      "lat": 24.5827976,
      "lng": 121.0339522
    }
  },
  {
    "name": "碧絡角 Biluojiao(最後入園&點餐時間:16:30)",
    "address": "南庄鄉東河村 橫屏背12鄰25號",
    "location": {
      "lat": 24.6162785,
      "lng": 121.0387046
    }
  },
  {
    "name": "瓦祿產業文化館",
    "address": "南庄鄉東河村5鄰78號",
    "location": {
      "lat": 24.5988645,
      "lng": 121.0410932
    }
  },
  {
    "name": "荷蓮心咖啡",
    "address": "南庄鄉文化路7-1號",
    "location": {
      "lat": 24.5988301,
      "lng": 120.9995302
    }
  },
  {
    "name": "青杉嶴 Ao Cafe",
    "address": "南庄鄉東河村石壁23號",
    "location": {
      "lat": 24.5590866,
      "lng": 121.0396828
    }
  },
  {
    "name": "歐蕾山莊",
    "address": "獅潭鄉",
    "location": {
      "lat": 24.5612469,
      "lng": 120.9347391
    }
  },
  {
    "name": "貓頭鷹農場自產咖啡",
    "address": "獅潭鄉",
    "location": {
      "lat": 24.5418883,
      "lng": 120.921726
    }
  },
  {
    "name": "後角手作烘焙（咖啡、白巧檸檬蛋糕）",
    "address": "獅潭鄉新店73-1號",
    "location": {
      "lat": 24.5409752,
      "lng": 120.9226341
    }
  },
  {
    "name": "綠葉方舟Green Ark",
    "address": "三義鄉綠舟路1號",
    "location": {
      "lat": 24.3880913,
      "lng": 120.7783679
    }
  },
  {
    "name": "【鍾鼎山林】雲海景觀咖啡廳・老薑蒸足浴",
    "address": "大湖鄉栗林村薑麻園13號",
    "location": {
      "lat": 24.3872652,
      "lng": 120.8247737
    }
  },
  {
    "name": "漫時光",
    "address": "三義鄉龍騰村9之5號",
    "location": {
      "lat": 24.3780878,
      "lng": 120.7830198
    }
  },
  {
    "name": "自然風情景觀渡假民宿",
    "address": "卓蘭鎮134-7號",
    "location": {
      "lat": 24.3324031,
      "lng": 120.7818812
    }
  },
  {
    "name": "在水一方咖啡屋",
    "address": "淋漓坪, 116號, 大湖乡",
    "location": {
      "lat": 24.38841459999999,
      "lng": 120.8605255
    }
  },
  {
    "name": "咖啡薄霧館",
    "address": "三義鄉八股路館前五巷1之18號",
    "location": {
      "lat": 24.4052303,
      "lng": 120.7628533
    }
  },
  {
    "name": "花時間茶語咖啡",
    "address": "三義鄉八股路館前三巷1之5號",
    "location": {
      "lat": 24.4046242,
      "lng": 120.7623192
    }
  },
  {
    "name": "大頭站",
    "address": "苗栗縣三義鄉50號",
    "location": {
      "lat": 24.3904779,
      "lng": 120.781604
    }
  },
  {
    "name": "鐵道驛站庭園餐廳咖啡館（午餐咖啡飲料下午茶附停車場）",
    "address": "三義鄉外庄20號",
    "location": {
      "lat": 24.3603797,
      "lng": 120.7743232
    }
  },
  {
    "name": "MeSee 甜點製材所",
    "address": "大湖鄉南昌路41號",
    "location": {
      "lat": 24.3988042,
      "lng": 120.8674221
    }
  },
  {
    "name": "密式旅行",
    "address": "泰安鄉大興村高 熊 卡 6 號",
    "location": {
      "lat": 24.418704,
      "lng": 120.913734
    }
  },
  {
    "name": "阿嵐蔬食咖啡館",
    "address": "三義鄉雙湖23號",
    "location": {
      "lat": 24.4176604,
      "lng": 120.7739251
    }
  },
  {
    "name": "85度C咖啡蛋糕飲料麵包-三義中正店",
    "address": "三義鄉中正路124號",
    "location": {
      "lat": 24.4134696,
      "lng": 120.7718451
    }
  },
  {
    "name": "貳拾/肆 茶飲店",
    "address": "三義鄉中正路168-3號",
    "location": {
      "lat": 24.4110669,
      "lng": 120.7684555
    }
  },
  {
    "name": "Sundoya",
    "address": "三義鄉八股路21號",
    "location": {
      "lat": 24.4061686,
      "lng": 120.7663959
    }
  },
  {
    "name": "不丹-禧媧藝術空間Zhiwa Art Space Bhutan（不丹藝術人文、不丹酥油茶DIY、精品咖啡、預約限定）",
    "address": "三義鄉八股路館前7巷1-11號2樓",
    "location": {
      "lat": 24.4058453,
      "lng": 120.7634621
    }
  },
  {
    "name": "Art Lynn - 無己之凡生活空間",
    "address": "號, No. 25之 5, 八股路, 三義鄉",
    "location": {
      "lat": 24.4048058,
      "lng": 120.7660052
    }
  },
  {
    "name": "瀰霧咖啡",
    "address": "三義鄉八股路館 前 一 巷 1-1 號 二 樓",
    "location": {
      "lat": 24.4048309,
      "lng": 120.7618713
    }
  },
  {
    "name": "弘義股份有限公司",
    "address": "三義鄉八股路館前1巷1號之17，, 1樓",
    "location": {
      "lat": 24.4047349,
      "lng": 120.7621142
    }
  },
  {
    "name": "瓦弄紅茶冰",
    "address": "三義鄉水美街384號",
    "location": {
      "lat": 24.4024114,
      "lng": 120.76425
    }
  },
  {
    "name": "天水涵茶坊",
    "address": "三義鄉水美路348號",
    "location": {
      "lat": 24.4018171,
      "lng": 120.7638451
    }
  },
  {
    "name": "JF杰夫画廊",
    "address": "Taiwan",
    "location": {
      "lat": 24.3998984,
      "lng": 120.7621958
    }
  },
  {
    "name": "摩洛克",
    "address": "Taiwan",
    "location": {
      "lat": 24.3997364,
      "lng": 120.7622934
    }
  },
  {
    "name": "En Cafe House",
    "address": "三義鄉水美街110號",
    "location": {
      "lat": 24.3962611,
      "lng": 120.7599731
    }
  },
  {
    "name": "樂禵咖啡",
    "address": "三義鄉5-10",
    "location": {
      "lat": 24.3900542,
      "lng": 120.7586562
    }
  },
  {
    "name": "McCafé 咖啡-苗栗三義店",
    "address": "三義鄉下湖5-15號1樓",
    "location": {
      "lat": 24.3894568,
      "lng": 120.7591058
    }
  },
  {
    "name": "勝興鐵馬咖啡",
    "address": "三義鄉苗49鄉道18號",
    "location": {
      "lat": 24.3895829,
      "lng": 120.7818158
    }
  },
  {
    "name": "油庫黑油咖啡",
    "address": "三義鄉14鄰88號",
    "location": {
      "lat": 24.3882157,
      "lng": 120.7819871
    }
  },
  {
    "name": "湖畔咖啡",
    "address": "三義鄉367",
    "location": {
      "lat": 24.38653829999999,
      "lng": 120.7644938
    }
  },
  {
    "name": "藍庄咖啡館",
    "address": "三義鄉",
    "location": {
      "lat": 24.3921557,
      "lng": 120.7954872
    }
  },
  {
    "name": "停車場 （映象水岸）",
    "address": "三義鄉9QM6+PX",
    "location": {
      "lat": 24.384291,
      "lng": 120.7623635
    }
  },
  {
    "name": "喆娟夢田茶館",
    "address": "三義鄉龍騰村9-5號",
    "location": {
      "lat": 24.37752679999999,
      "lng": 120.7827761
    }
  },
  {
    "name": "灣岸咖啡廣場",
    "address": "銅鑼鄉Unnamed Road, 366",
    "location": {
      "lat": 24.4339425,
      "lng": 120.8246682
    }
  },
  {
    "name": "Serena's Garden",
    "address": "銅鑼鄉",
    "location": {
      "lat": 24.4479442,
      "lng": 120.8389309
    }
  },
  {
    "name": "Hunter's Farm",
    "address": "銅鑼鄉Unnamed Road, 366",
    "location": {
      "lat": 24.4481296,
      "lng": 120.8400184
    }
  },
  {
    "name": "幸福人家精品有機咖啡",
    "address": "大湖鄉薑 麻 園 社區",
    "location": {
      "lat": 24.3875853,
      "lng": 120.8257968
    }
  },
  {
    "name": "十二珈琲",
    "address": "大湖鄉民族路41-1號",
    "location": {
      "lat": 24.4231198,
      "lng": 120.8692068
    }
  },
  {
    "name": "煌記高架草莓農莊",
    "address": "大湖鄉中原路1-34號",
    "location": {
      "lat": 24.4315374,
      "lng": 120.8691741
    }
  },
  {
    "name": "山腳酷咖啡館",
    "address": "公館鄉5 鄰159 號",
    "location": {
      "lat": 24.4759455,
      "lng": 120.8266783
    }
  },
  {
    "name": "覓語饌－大湖",
    "address": "大湖鄉清安道路",
    "location": {
      "lat": 24.452644,
      "lng": 120.8757083
    }
  },
  {
    "name": "More Cafe",
    "address": "獅潭鄉舊後汶公路53號",
    "location": {
      "lat": 24.4572219,
      "lng": 120.8757063
    }
  },
  {
    "name": "沐沐貓狸 Mu Mu Maoli",
    "address": "公館鄉",
    "location": {
      "lat": 24.4995431,
      "lng": 120.8737285
    }
  },
  {
    "name": "山上人家森林農場",
    "address": "五峰鄉23鄰468之5號",
    "location": {
      "lat": 24.6046404,
      "lng": 121.0891015
    }
  },
  {
    "name": "天水茶房",
    "address": "北埔鄉北埔街35號",
    "location": {
      "lat": 24.6996933,
      "lng": 121.0570138
    }
  },
  {
    "name": "擂茶三生店",
    "address": "北埔鄉公園街22號鄧南光影像紀念館 對面",
    "location": {
      "lat": 24.6987684,
      "lng": 121.0574613
    }
  },
  {
    "name": "璞鈺擂茶 PUYU HAKKA LEICHA",
    "address": "北埔鄉廟前街8號",
    "location": {
      "lat": 24.6990496,
      "lng": 121.0575657
    }
  },
  {
    "name": "新竹五峰撒牧咖啡",
    "address": "五峰鄉隘蘭聯絡道路",
    "location": {
      "lat": 24.6091014,
      "lng": 121.1003188
    }
  },
  {
    "name": "貝絲咖啡農場",
    "address": "五峰鄉竹林村5鄰和平166-12號",
    "location": {
      "lat": 24.624392,
      "lng": 121.112097
    }
  },
  {
    "name": "愛上咖啡",
    "address": "北埔鄉公園街29號",
    "location": {
      "lat": 24.6985516,
      "lng": 121.05747
    }
  },
  {
    "name": "民歌擂茶",
    "address": "北埔鄉北埔街41號",
    "location": {
      "lat": 24.6997036,
      "lng": 121.056822
    }
  },
  {
    "name": "藤坪山庄",
    "address": "峨眉鄉18鄰2號",
    "location": {
      "lat": 24.6507307,
      "lng": 121.0300181
    }
  },
  {
    "name": "伯優農場景觀咖啡屋",
    "address": "南庄鄉21鄰4號",
    "location": {
      "lat": 24.5686372,
      "lng": 121.0458376
    }
  },
  {
    "name": "森林咖啡館",
    "address": "468-5, 五峰鄉",
    "location": {
      "lat": 24.6035202,
      "lng": 121.0895125
    }
  },
  {
    "name": "盛夏食結haba:an",
    "address": "五峰鄉隘蘭聯絡道路",
    "location": {
      "lat": 24.6139952,
      "lng": 121.0919312
    }
  },
  {
    "name": "雲海咖啡廳",
    "address": "五峰鄉380",
    "location": {
      "lat": 24.5276473,
      "lng": 121.1178162
    }
  },
  {
    "name": "楠桂坊咖啡舖",
    "address": "五峰鄉竹林村和平154-1號",
    "location": {
      "lat": 24.619318,
      "lng": 121.1176087
    }
  },
  {
    "name": "鍾鼎山林",
    "address": "南庄鄉102之3",
    "location": {
      "lat": 24.58029419999999,
      "lng": 121.0105733
    }
  },
  {
    "name": "五指山金線蓮",
    "address": "北埔鄉六股20號之一",
    "location": {
      "lat": 24.6417463,
      "lng": 121.0881676
    }
  },
  {
    "name": "竹林居",
    "address": "南庄鄉72之3號",
    "location": {
      "lat": 24.6164394,
      "lng": 121.0195253
    }
  },
  {
    "name": "雨岩",
    "address": "北埔鄉11-4號",
    "location": {
      "lat": 24.642888,
      "lng": 121.0900102
    }
  },
  {
    "name": "磚蜀餐飲",
    "address": "北埔鄉六股11-8號",
    "location": {
      "lat": 24.6430567,
      "lng": 121.0897221
    }
  },
  {
    "name": "雲霧咖啡廳",
    "address": "泰安鄉1-1",
    "location": {
      "lat": 24.50666369999999,
      "lng": 121.1146928
    }
  },
  {
    "name": "AS手作 ｜咖啡 擴香石 精油 解謎",
    "address": "南庄鄉南江街99號",
    "location": {
      "lat": 24.5931277,
      "lng": 120.9994322
    }
  },
  {
    "name": "黃金傳說窯烤麵包13間老街店",
    "address": "南庄鄉中山路77號",
    "location": {
      "lat": 24.5972713,
      "lng": 120.9992411
    }
  },
  {
    "name": "紅茶奶茶熱壓土司",
    "address": "南庄鄉文化路353號",
    "location": {
      "lat": 24.5991353,
      "lng": 120.99967
    }
  },
  {
    "name": "小乖的家",
    "address": "No. 46號, 東村14鄰, 南庄鄉",
    "location": {
      "lat": 24.5998051,
      "lng": 120.9997649
    }
  },
  {
    "name": "SLOW TIME 漫食",
    "address": "南庄鄉民生街25號",
    "location": {
      "lat": 24.5984929,
      "lng": 120.9992176
    }
  },
  {
    "name": "老甕手工粉圓",
    "address": "南庄鄉文化路353號",
    "location": {
      "lat": 24.59902289999999,
      "lng": 120.9993809
    }
  },
  {
    "name": "鐵鍋手作咖啡",
    "address": "南庄鄉中山路67號",
    "location": {
      "lat": 24.59767799999999,
      "lng": 120.9984659
    }
  },
  {
    "name": "十三間手作農坊",
    "address": "南庄鄉中山路67號",
    "location": {
      "lat": 24.5977202,
      "lng": 120.9984571
    }
  },
  {
    "name": "蛙蛙蛋檸檬愛玉粉圓",
    "address": "南庄鄉中山路96-1號",
    "location": {
      "lat": 24.59728,
      "lng": 120.998285
    }
  },
  {
    "name": "六爺酸柑茶",
    "address": "南庄鄉中正路240號",
    "location": {
      "lat": 24.6051753,
      "lng": 121.0015463
    }
  },
  {
    "name": "鹽和光工作室｜平日飯糰需預約、甜點以當日為主、整模蛋糕三日前預約｜",
    "address": "南庄鄉中正路2巷3號",
    "location": {
      "lat": 24.60191009999999,
      "lng": 120.9999363
    }
  },
  {
    "name": "老屋六號咖啡",
    "address": "南庄鄉西村12鄰6號",
    "location": {
      "lat": 24.5982842,
      "lng": 120.9957958
    }
  },
  {
    "name": "請問Coffee",
    "address": "五峰鄉3鄰68之2號",
    "location": {
      "lat": 24.6247299,
      "lng": 121.1478065
    }
  },
  {
    "name": "Sud Vista 蘇維拉莊園-咖啡屋",
    "address": "No. 92號, 四灣十五鄰, 南庄鄉",
    "location": {
      "lat": 24.6079495,
      "lng": 120.9962784
    }
  },
  {
    "name": "且姆 黑糖冰（請將車輛停隔壁大閘蟹；8/3公休，週日供餐到13點）",
    "address": "No. 71-3號, 四灣段14鄰, 南庄鄉",
    "location": {
      "lat": 24.6202784,
      "lng": 121.0032707
    }
  },
  {
    "name": "CANELé du Quai 烙角可麗露廚房‼️預約後前來/有低消/一人廚房‼️",
    "address": "南庄鄉福南17鄰41號",
    "location": {
      "lat": 24.5742281,
      "lng": 120.9857079
    }
  },
  {
    "name": "水岸時光山城",
    "address": "南庄鄉苗20鄉道南富村17鄰四灣33號",
    "location": {
      "lat": 24.6343276,
      "lng": 121.003338
    }
  },
  {
    "name": "獅頭山４C沁畇咖啡",
    "address": "南庄鄉獅山242號",
    "location": {
      "lat": 24.6413177,
      "lng": 121.010439
    }
  },
  {
    "name": "半山雅筑",
    "address": "南庄鄉四灣22鄰77-5號",
    "location": {
      "lat": 24.61587,
      "lng": 120.987095
    }
  },
  {
    "name": "夢田莊園",
    "address": "南庄鄉30之3",
    "location": {
      "lat": 24.6352004,
      "lng": 120.9971713
    }
  },
  {
    "name": "步道咖啡",
    "address": "南庄鄉護魚步道",
    "location": {
      "lat": 24.551364,
      "lng": 120.972932
    }
  },
  {
    "name": "雅閑居",
    "address": "南庄鄉四彎段61之6號号號",
    "location": {
      "lat": 24.6270341,
      "lng": 120.9852245
    }
  },
  {
    "name": "幸運草小築",
    "address": "紅毛館, 127 號, Nanzhuang Township",
    "location": {
      "lat": 24.5396388,
      "lng": 120.9704541
    }
  },
  {
    "name": "慢慢飛-觀景&咖啡&輕食",
    "address": "泰安鄉高熊卡",
    "location": {
      "lat": 24.42673719999999,
      "lng": 120.9183162
    }
  },
  {
    "name": "監茶院",
    "address": "泰安鄉清安路",
    "location": {
      "lat": 24.4463948,
      "lng": 120.9069201
    }
  },
  {
    "name": "阿靜豆干",
    "address": "泰安鄉清安道路18號",
    "location": {
      "lat": 24.4466921,
      "lng": 120.9052488
    }
  },
  {
    "name": "老陳爸爸的餅舖",
    "address": "泰安鄉洗水坑18號",
    "location": {
      "lat": 24.4467427,
      "lng": 120.9052622
    }
  },
  {
    "name": "33號咖啡",
    "address": "泰安鄉天狗6 鄰 33 號",
    "location": {
      "lat": 24.3928116,
      "lng": 120.9788954
    }
  },
  {
    "name": "打沆咖啡Da-Hang Café",
    "address": "二十之九號, 一鄰, 泰安乡",
    "location": {
      "lat": 24.3587018,
      "lng": 120.9487898
    }
  },
  {
    "name": "醉醒咖啡 Sober up",
    "address": "泰安鄉圓墩",
    "location": {
      "lat": 24.4669792,
      "lng": 120.9548039
    }
  },
  {
    "name": "上巴爺爺喝咖啡",
    "address": "泰安鄉10鄰72之27號",
    "location": {
      "lat": 24.4673148,
      "lng": 120.9632904
    }
  },
  {
    "name": "巴燕咖啡莊園",
    "address": "泰安鄉蘇魯",
    "location": {
      "lat": 24.344854,
      "lng": 120.923307
    }
  },
  {
    "name": "樸雅園",
    "address": "和平區東崎路一段桃山巷46之1號",
    "location": {
      "lat": 24.3380872,
      "lng": 120.9353782
    }
  },
  {
    "name": "哈豹咖啡屋",
    "address": "和平區東崎路一段桃山巷73-2號",
    "location": {
      "lat": 24.3365056,
      "lng": 120.9345801
    }
  },
  {
    "name": "布岸把臘caf'e輕食館",
    "address": "泰安鄉梅園村7鄰10號",
    "location": {
      "lat": 24.4248408,
      "lng": 121.0134342
    }
  },
  {
    "name": "比度咖啡屋",
    "address": "和平區東崎路一段天嶺巷1之4號",
    "location": {
      "lat": 24.3187714,
      "lng": 120.9241537
    }
  },
  {
    "name": "HOPING COFFEE",
    "address": "泰安鄉",
    "location": {
      "lat": 24.3831955,
      "lng": 121.03351
    }
  },
  {
    "name": "EAGLE COFFEE 伊果咖啡",
    "address": "大湖鄉8-5號",
    "location": {
      "lat": 24.3490052,
      "lng": 120.8299713
    }
  },
  {
    "name": "神谷山咖啡莊園",
    "address": "和平區東崎路二段烏石巷90-1號",
    "location": {
      "lat": 24.299521,
      "lng": 120.9426761
    }
  },
  {
    "name": "卓蘭華雲咖啡",
    "address": "369苗栗縣卓蘭鎮號",
    "location": {
      "lat": 24.3333882,
      "lng": 120.8292758
    }
  },
  {
    "name": "賽夏竹軒",
    "address": "南庄鄉八卦力11鄰23-1號",
    "location": {
      "lat": 24.5292382,
      "lng": 120.9597892
    }
  },
  {
    "name": "Garden 147-1 咖啡 輕食",
    "address": "147-1, 卓兰镇",
    "location": {
      "lat": 24.3162384,
      "lng": 120.8361979
    }
  },
  {
    "name": "C3 cafe《推薦咖啡廳》卓蘭秘境下午茶｜下午茶甜點｜精緻下午茶｜咖啡甜點｜特色｜熱門｜質感｜聚會咖啡廳",
    "address": "20-2號, 卓兰镇",
    "location": {
      "lat": 24.3240875,
      "lng": 120.8242853
    }
  },
  {
    "name": "小山丘 hillside 145.5k",
    "address": "卓蘭鎮西坪里9鄰108號",
    "location": {
      "lat": 24.33137409999999,
      "lng": 120.8130558
    }
  },
  {
    "name": "卓蘭想喝咖啡車",
    "address": "卓蘭鎮台3線",
    "location": {
      "lat": 24.3327181,
      "lng": 120.8095513
    }
  },
  {
    "name": "Coffee 7-6（咖啡7-6）",
    "address": "卓蘭鎮卓林街369農田水利會斜對面",
    "location": {
      "lat": 24.3103488,
      "lng": 120.8315364
    }
  },
  {
    "name": "陸順茶莊",
    "address": "卓蘭鎮中正路137號號",
    "location": {
      "lat": 24.3119506,
      "lng": 120.8281203
    }
  },
  {
    "name": "市場咖啡屋",
    "address": "卓蘭鎮民族路53號公有 零售 市場 第 33 攤",
    "location": {
      "lat": 24.31283359999999,
      "lng": 120.8273022
    }
  },
  {
    "name": "山城茶舍",
    "address": "卓蘭鎮興南街310號",
    "location": {
      "lat": 24.3099233,
      "lng": 120.8234946
    }
  }
]